{"type":"FeatureCollection","features":[{"type":"Feature","properties":{"denkmalnummer":1,"strasse":"Adolphstrasse","kurzbezeichnung":"Allee","adresse":"50679 Köln, Adolphstrasse o.Nr.","baujahr":"1910","nummer":"o.Nr.","plz":50679},"geometry":{"type":"Point","coordinates":[6.9767532,50.9353499]}},{"type":"Feature","properties":{"denkmalnummer":2,"strasse":"Agrippinaufer ","kurzbezeichnung":"Allee","adresse":"50678 Köln, Agrippinaufer  o.Nr.","baujahr":"1900","nummer":"o.Nr.","plz":50678},"geometry":{"type":"Point","coordinates":[6.9672721,50.9219475]}},{"type":"Feature","properties":{"denkmalnummer":3,"strasse":"Agrippinawerft ","kurzbezeichnung":"Lagergebäude 22 (sog. Siebengebirge) u. ehem. Rheinbastion","adresse":"50678 Köln, Agrippinawerft  o.Nr.","baujahr":"1908","nummer":"o.Nr.","plz":50678},"geometry":{"type":"Point","coordinates":[6.9686769,50.9207509]}},{"type":"Feature","properties":{"denkmalnummer":4,"strasse":"Alfred-Schütte-Allee ","kurzbezeichnung":"Drehbrücke","adresse":"50679 Köln, Alfred-Schütte-Allee  o.Nr.","baujahr":"1910","nummer":"o.Nr.","plz":50679},"geometry":{"type":"Point","coordinates":[6.9742625,50.9282184]}},{"type":"Feature","properties":{"denkmalnummer":5,"strasse":"Alteburger Strasse","kurzbezeichnung":"Allee","adresse":"50678 Köln, Alteburger Strasse o.Nr.","baujahr":"1890","nummer":"o.Nr.","plz":50678},"geometry":{"type":"Point","coordinates":[6.9633875,50.9176964]}},{"type":"Feature","properties":{"denkmalnummer":7,"strasse":"Alter Markt","kurzbezeichnung":"Jan-von-Werth-Brunnen","adresse":"50667 Köln, Alter Markt o.Nr.","baujahr":"1884","nummer":"o.Nr.","plz":50667},"geometry":{"type":"Point","coordinates":[6.9599394,50.9379382]}},{"type":"Feature","properties":{"denkmalnummer":8,"strasse":"Alter Markt","kurzbezeichnung":"Steinerne Pumpe","adresse":"50667 Köln, Alter Markt o.Nr.","baujahr":"18","nummer":"o.Nr.","plz":50667},"geometry":{"type":"Point","coordinates":[6.9599394,50.9379382]}},{"type":"Feature","properties":{"denkmalnummer":9,"strasse":"Parkgürtel","kurzbezeichnung":"Litfaßsäule","adresse":"50823 Köln, Parkgürtel 24","baujahr":"19","nummer":"24","plz":50823},"geometry":{"type":"Point","coordinates":[6.9320606,50.9604188]}},{"type":"Feature","properties":{"denkmalnummer":20,"strasse":"Balthasarstrasse","kurzbezeichnung":"Schule","adresse":"50670 Köln, Balthasarstrasse 87","baujahr":"1900","nummer":"87","plz":50670},"geometry":{"type":"Point","coordinates":[6.96021654664426,50.95300535]}},{"type":"Feature","properties":{"denkmalnummer":21,"strasse":"Bayenstrasse","kurzbezeichnung":"Allee","adresse":"50678 Köln, Bayenstrasse o.Nr.","baujahr":"1900","nummer":"o.Nr.","plz":50678},"geometry":{"type":"Point","coordinates":[6.963628,50.9272106]}},{"type":"Feature","properties":{"denkmalnummer":23,"strasse":"Beethovenstrasse","kurzbezeichnung":"Allee","adresse":"50674 Köln, Beethovenstrasse o.Nr.","baujahr":"1890","nummer":"o.Nr.","plz":50674},"geometry":{"type":"Point","coordinates":[6.9398945,50.9330545]}},{"type":"Feature","properties":{"denkmalnummer":25,"strasse":"Brückenstrasse","kurzbezeichnung":"Büro- u. Geschäftshaus","adresse":"50667 Köln, Brückenstrasse 17","baujahr":"1910","nummer":"17","plz":50667},"geometry":{"type":"Point","coordinates":[6.9548121,50.9379742]}},{"type":"Feature","properties":{"denkmalnummer":26,"strasse":"Brüsseler Platz","kurzbezeichnung":"KD-Wegekreuz","adresse":"50674 Köln, Brüsseler Platz o.Nr.","baujahr":"18","nummer":"o.Nr.","plz":50674},"geometry":{"type":"Point","coordinates":[6.9326464,50.9381879]}},{"type":"Feature","properties":{"denkmalnummer":27,"strasse":"Buschgasse ","kurzbezeichnung":"Kinderspielplatz / Geländer","adresse":"50678 Köln, Buschgasse  o.Nr.","baujahr":"1890","nummer":"o.Nr.","plz":50678},"geometry":{"type":"Point","coordinates":[6.960852,50.926414]}},{"type":"Feature","properties":{"denkmalnummer":28,"strasse":"Cäcilienkloster ","kurzbezeichnung":"Kirche, Schnütgen-Museum","adresse":"50676 Köln, Cäcilienkloster  17-19","baujahr":"1150","nummer":"17-19","plz":50676},"geometry":{"type":"Point","coordinates":[6.9520289,50.9348808]}},{"type":"Feature","properties":{"denkmalnummer":29,"strasse":"Chlodwigplatz ","kurzbezeichnung":"Stadttor u. Platzgestaltung","adresse":"50678 Köln, Chlodwigplatz  o.Nr.","baujahr":"13","nummer":"o.Nr.","plz":50678},"geometry":{"type":"Point","coordinates":[6.959645870898,50.92107365]}},{"type":"Feature","properties":{"denkmalnummer":30,"strasse":"Clever Strasse","kurzbezeichnung":"Allee","adresse":"50668 Köln, Clever Strasse o.Nr.","baujahr":"20","nummer":"o.Nr.","plz":50668},"geometry":{"type":"Point","coordinates":[6.9665792,50.9546694]}},{"type":"Feature","properties":{"denkmalnummer":31,"strasse":"Dagobertstrasse","kurzbezeichnung":"Steinerne Pumpe","adresse":"50668 Köln, Dagobertstrasse o.Nr.","baujahr":"18","nummer":"o.Nr.","plz":50668},"geometry":{"type":"Point","coordinates":[6.9627071,50.9480059]}},{"type":"Feature","properties":{"denkmalnummer":33,"strasse":"Deutz-Kalker-Strasse","kurzbezeichnung":"Stadtbücherei","adresse":"50679 Köln, Deutz-Kalker-Strasse 52","baujahr":"1913","nummer":"52","plz":50679},"geometry":{"type":"Point","coordinates":[6.98336694278729,50.9370627]}},{"type":"Feature","properties":{"denkmalnummer":35,"strasse":"Eifelplatz ","kurzbezeichnung":"Platzgestaltung / Grünanlage","adresse":"50677 Köln, Eifelplatz  o.Nr.","baujahr":"19","nummer":"o.Nr.","plz":50677},"geometry":{"type":"Point","coordinates":[6.94425205178361,50.9239671]}},{"type":"Feature","properties":{"denkmalnummer":36,"strasse":"Eifelstrasse","kurzbezeichnung":"Baumreihe","adresse":"50677 Köln, Eifelstrasse o.Nr.","baujahr":"80","nummer":"o.Nr.","plz":50677},"geometry":{"type":"Point","coordinates":[6.9457963,50.9253662]}},{"type":"Feature","properties":{"denkmalnummer":37,"strasse":"Eigelstein","kurzbezeichnung":"Stadttor","adresse":"50668 Köln, Eigelstein o.Nr.","baujahr":"13","nummer":"o.Nr.","plz":50668},"geometry":{"type":"Point","coordinates":[6.9562762,50.9479974]}},{"type":"Feature","properties":{"denkmalnummer":38,"strasse":"Eigelstein ","kurzbezeichnung":"Wohn- u. Geschäftshaus","adresse":"50668 Köln, Eigelstein  101","baujahr":"1890","nummer":"101","plz":50668},"geometry":{"type":"Point","coordinates":[6.95643976258322,50.9482172]}},{"type":"Feature","properties":{"denkmalnummer":39,"strasse":"Eisenmarkt","kurzbezeichnung":"Wohnhaus (Hänneschen-Theater)","adresse":"50667 Köln, Eisenmarkt 2-4","baujahr":"1935","nummer":"2-4","plz":50667},"geometry":{"type":"Point","coordinates":[6.96165627448218,50.9371754]}},{"type":"Feature","properties":{"denkmalnummer":40,"strasse":"Eitorferstrasse","kurzbezeichnung":"nur Hinweis auf DL 34","adresse":"50679 Köln, Eitorferstrasse 2","baujahr":"0","nummer":"2","plz":50679},"geometry":{"type":"Point","coordinates":[6.9854868,50.9356285]}},{"type":"Feature","properties":{"denkmalnummer":41,"strasse":"Frankenwerft ","kurzbezeichnung":"Baumreihen","adresse":"50667 Köln, Frankenwerft  o.Nr.","baujahr":"1900","nummer":"o.Nr.","plz":50667},"geometry":{"type":"Point","coordinates":[6.9622996,50.9397806]}},{"type":"Feature","properties":{"denkmalnummer":42,"strasse":"Frankenwerft ","kurzbezeichnung":"Wohn- u. Geschäftshaus (ehem. Stapelhaus)","adresse":"50667 Köln, Frankenwerft  35","baujahr":"1900","nummer":"35","plz":50667},"geometry":{"type":"Point","coordinates":[6.9623895,50.9382713]}},{"type":"Feature","properties":{"denkmalnummer":43,"strasse":"Friesenwall ","kurzbezeichnung":"Wohnhaus","adresse":"50672 Köln, Friesenwall  94","baujahr":"1905","nummer":"94","plz":50672},"geometry":{"type":"Point","coordinates":[6.9411398,50.9397613]}},{"type":"Feature","properties":{"denkmalnummer":44,"strasse":"Friesenwall ","kurzbezeichnung":"Wohnhaus","adresse":"50672 Köln, Friesenwall  96-98","baujahr":"1895","nummer":"96-98","plz":50672},"geometry":{"type":"Point","coordinates":[6.94122897147727,50.93983635]}},{"type":"Feature","properties":{"denkmalnummer":45,"strasse":"Gereonsdriesch ","kurzbezeichnung":"Mariensäule","adresse":"50670 Köln, Gereonsdriesch  o.Nr.","baujahr":"1858","nummer":"o.Nr.","plz":50670},"geometry":{"type":"Point","coordinates":[6.9467135,50.9423554]}},{"type":"Feature","properties":{"denkmalnummer":46,"strasse":"Gereonsdriesch ","kurzbezeichnung":"Platzanlage / Grünanlage","adresse":"50670 Köln, Gereonsdriesch  o.Nr.","baujahr":"0","nummer":"o.Nr.","plz":50670},"geometry":{"type":"Point","coordinates":[6.9467135,50.9423554]}},{"type":"Feature","properties":{"denkmalnummer":47,"strasse":"Gereonswall","kurzbezeichnung":"Stadtbefestigungsturm / ehem. Windmühle (Gereons..)","adresse":"50670 Köln, Gereonswall 108","baujahr":"14","nummer":"108","plz":50670},"geometry":{"type":"Point","coordinates":[6.94822728347826,50.94632965]}},{"type":"Feature","properties":{"denkmalnummer":48,"strasse":"Gilbachstrasse","kurzbezeichnung":"Schule","adresse":"50672 Köln, Gilbachstrasse 20","baujahr":"1910","nummer":"20","plz":50672},"geometry":{"type":"Point","coordinates":[6.9386924,50.9455427]}},{"type":"Feature","properties":{"denkmalnummer":49,"strasse":"Gotenring ","kurzbezeichnung":"Schule (Portal, Eingang Emeniusstr.)","adresse":"50679 Köln, Gotenring  5","baujahr":"1913","nummer":"5","plz":50679},"geometry":{"type":"Point","coordinates":[6.97884277261864,50.93588165]}},{"type":"Feature","properties":{"denkmalnummer":50,"strasse":"Gülichplatz","kurzbezeichnung":"Fastnachtsbrunnen","adresse":"50667 Köln, Gülichplatz o.Nr.","baujahr":"1913","nummer":"o.Nr.","plz":50667},"geometry":{"type":"Point","coordinates":[6.9580978,50.9374893]}},{"type":"Feature","properties":{"denkmalnummer":51,"strasse":"Gürzenichstrasse ","kurzbezeichnung":"Teile der Fassade u. d. Innenausstattung","adresse":"50667 Köln, Gürzenichstrasse  6-16","baujahr":"1911","nummer":"6-16","plz":50667},"geometry":{"type":"Point","coordinates":[6.9579776,50.9362752]}},{"type":"Feature","properties":{"denkmalnummer":52,"strasse":"Hansaplatz ","kurzbezeichnung":"Grünanlage","adresse":"50670 Köln, Hansaplatz  o.Nr.","baujahr":"1896","nummer":"o.Nr.","plz":50670},"geometry":{"type":"Point","coordinates":[6.94763770996122,50.9464884]}},{"type":"Feature","properties":{"denkmalnummer":53,"strasse":"Hansaring ","kurzbezeichnung":"Allee","adresse":"50670 Köln, Hansaring  o.Nr.","baujahr":"1890","nummer":"o.Nr.","plz":50670},"geometry":{"type":"Point","coordinates":[6.9526414,50.9490877]}},{"type":"Feature","properties":{"denkmalnummer":54,"strasse":"Hansaring ","kurzbezeichnung":"Schule","adresse":"50670 Köln, Hansaring  54-58","baujahr":"1898","nummer":"54-58","plz":50670},"geometry":{"type":"Point","coordinates":[6.9455198,50.9462298]}},{"type":"Feature","properties":{"denkmalnummer":55,"strasse":"Hans-Böckler-Platz","kurzbezeichnung":"Platzgestaltung / Grünanlage","adresse":"50672 Köln, Hans-Böckler-Platz o.Nr.","baujahr":"1910","nummer":"o.Nr.","plz":50672},"geometry":{"type":"Point","coordinates":[6.9333404,50.9438526]}},{"type":"Feature","properties":{"denkmalnummer":56,"strasse":"Hardefuststrasse","kurzbezeichnung":"Allee","adresse":"50677 Köln, Hardefuststrasse o.Nr.","baujahr":"1890","nummer":"o.Nr.","plz":50677},"geometry":{"type":"Point","coordinates":[6.9469058,50.9227238]}},{"type":"Feature","properties":{"denkmalnummer":57,"strasse":"Helenenwall","kurzbezeichnung":"Platzgestaltung / Grünanlage","adresse":"50679 Köln, Helenenwall o.Nr.","baujahr":"1910","nummer":"o.Nr.","plz":50679},"geometry":{"type":"Point","coordinates":[6.9728858,50.9326185]}},{"type":"Feature","properties":{"denkmalnummer":58,"strasse":"Helenenwall","kurzbezeichnung":"Bunker","adresse":"50679 Köln, Helenenwall 21-29","baujahr":"1942","nummer":"21-29","plz":50679},"geometry":{"type":"Point","coordinates":[6.9757471,50.9340556]}},{"type":"Feature","properties":{"denkmalnummer":59,"strasse":"Herkulesstrasse","kurzbezeichnung":"Allee","adresse":"50823 Köln, Herkulesstrasse o.Nr.","baujahr":"20","nummer":"o.Nr.","plz":50823},"geometry":{"type":"Point","coordinates":[6.9305413,50.9554293]}},{"type":"Feature","properties":{"denkmalnummer":60,"strasse":"Heumarkt ","kurzbezeichnung":"Heumarktdenkmal/ Reiterstandbild Friedrich-Wilhelm","adresse":"50667 Köln, Heumarkt  o.Nr.","baujahr":"1865","nummer":"o.Nr.","plz":50667},"geometry":{"type":"Point","coordinates":[6.9609135,50.9360088]}},{"type":"Feature","properties":{"denkmalnummer":64,"strasse":"Holzmarkt","kurzbezeichnung":"Allee","adresse":"50676 Köln, Holzmarkt o.Nr.","baujahr":"1900","nummer":"o.Nr.","plz":50676},"geometry":{"type":"Point","coordinates":[6.962777,50.9299398]}},{"type":"Feature","properties":{"denkmalnummer":65,"strasse":"Holzmarkt ","kurzbezeichnung":"Malakoffturm / Teil der ehem. Rheinbefestigung","adresse":"50676 Köln, Holzmarkt  o.Nr.","baujahr":"1853","nummer":"o.Nr.","plz":50676},"geometry":{"type":"Point","coordinates":[6.962777,50.9299398]}},{"type":"Feature","properties":{"denkmalnummer":66,"strasse":"Holzmarkt","kurzbezeichnung":"Drehbrücke, Geländer, Skulptur Der Tauzieher","adresse":"50676 Köln, Holzmarkt o.Nr.","baujahr":"1908","nummer":"o.Nr.","plz":50676},"geometry":{"type":"Point","coordinates":[6.962777,50.9299398]}},{"type":"Feature","properties":{"denkmalnummer":71,"strasse":"Karolingerring","kurzbezeichnung":"Baumreihe","adresse":"50678 Köln, Karolingerring o.Nr.","baujahr":"1890","nummer":"o.Nr.","plz":50678},"geometry":{"type":"Point","coordinates":[6.9579189,50.9214739]}},{"type":"Feature","properties":{"denkmalnummer":72,"strasse":"Kasemattenstrasse","kurzbezeichnung":"Baumreihe","adresse":"50679 Köln, Kasemattenstrasse o.Nr.","baujahr":"19","nummer":"o.Nr.","plz":50679},"geometry":{"type":"Point","coordinates":[6.9764165,50.9381353]}},{"type":"Feature","properties":{"denkmalnummer":73,"strasse":"Kennedy-Ufer","kurzbezeichnung":"Messe- u. Ausstellungshallen, Turm","adresse":"50679 Köln, Kennedy-Ufer o.Nr.","baujahr":"1925","nummer":"o.Nr.","plz":50679},"geometry":{"type":"Point","coordinates":[6.9692227,50.9408901]}},{"type":"Feature","properties":{"denkmalnummer":74,"strasse":"Kennedy-Ufer ","kurzbezeichnung":"KD -Kriegerdenkmal","adresse":"50679 Köln, Kennedy-Ufer  o.Nr.","baujahr":"1930","nummer":"o.Nr.","plz":50679},"geometry":{"type":"Point","coordinates":[6.9692227,50.9408901]}},{"type":"Feature","properties":{"denkmalnummer":75,"strasse":"Kleingedankstrasse","kurzbezeichnung":"Allee","adresse":"50677 Köln, Kleingedankstrasse o.Nr.","baujahr":"1890","nummer":"o.Nr.","plz":50677},"geometry":{"type":"Point","coordinates":[6.9521162,50.9236117]}},{"type":"Feature","properties":{"denkmalnummer":76,"strasse":"Kolpingplatz","kurzbezeichnung":"KD-Kolpingdenkmal","adresse":"50667 Köln, Kolpingplatz o.Nr.","baujahr":"1903","nummer":"o.Nr.","plz":50667},"geometry":{"type":"Point","coordinates":[6.9540777,50.9391876]}},{"type":"Feature","properties":{"denkmalnummer":77,"strasse":"Komödienstrasse","kurzbezeichnung":"röm. Stadtmauerreste \"Lysolphturm\", KD","adresse":"50667 Köln, Komödienstrasse o.Nr.","baujahr":"1","nummer":"o.Nr.","plz":50667},"geometry":{"type":"Point","coordinates":[6.9529114,50.9415426]}},{"type":"Feature","properties":{"denkmalnummer":78,"strasse":"Komödienstrasse","kurzbezeichnung":"KD-(Albertus-Magnus-Statue)","adresse":"50667 Köln, Komödienstrasse o.Nr.","baujahr":"19","nummer":"o.Nr.","plz":50667},"geometry":{"type":"Point","coordinates":[6.9529114,50.9415426]}},{"type":"Feature","properties":{"denkmalnummer":79,"strasse":"Konrad-Adenauer-Ufer","kurzbezeichnung":"Allee","adresse":"50668 Köln, Konrad-Adenauer-Ufer o.Nr.","baujahr":"1900","nummer":"o.Nr.","plz":50668},"geometry":{"type":"Point","coordinates":[6.9639365,50.9468145]}},{"type":"Feature","properties":{"denkmalnummer":80,"strasse":"Konrad-Adenauer-Ufer","kurzbezeichnung":"Allee + Geländer","adresse":"50668 Köln, Konrad-Adenauer-Ufer o.Nr.","baujahr":"1900","nummer":"o.Nr.","plz":50668},"geometry":{"type":"Point","coordinates":[6.9639365,50.9468145]}},{"type":"Feature","properties":{"denkmalnummer":81,"strasse":"Konrad-Adenauer-Ufer","kurzbezeichnung":"\"Weckschnapp\" mit ehem. Befestigungsturm","adresse":"50668 Köln, Konrad-Adenauer-Ufer 69 a","baujahr":"18","nummer":"69 a","plz":50668},"geometry":{"type":"Point","coordinates":[6.9654413,50.9493437]}},{"type":"Feature","properties":{"denkmalnummer":82,"strasse":"Konrad-Adenauer-Ufer","kurzbezeichnung":"Panoramerestaurant auf Stadtbefestigungsresten","adresse":"50668 Köln, Konrad-Adenauer-Ufer 80","baujahr":"1834","nummer":"80","plz":50668},"geometry":{"type":"Point","coordinates":[6.96672664799612,50.9500735]}},{"type":"Feature","properties":{"denkmalnummer":83,"strasse":"Lichhof ","kurzbezeichnung":"Immunitätstor / Dreikönigenpförtchen","adresse":"50676 Köln, Lichhof  o.Nr.","baujahr":"14","nummer":"o.Nr.","plz":50676},"geometry":{"type":"Point","coordinates":[6.95901640564069,50.93468575]}},{"type":"Feature","properties":{"denkmalnummer":84,"strasse":"Lintgasse ","kurzbezeichnung":"Wohnhaus","adresse":"50667 Köln, Lintgasse  22-26","baujahr":"1935","nummer":"22-26","plz":50667},"geometry":{"type":"Point","coordinates":[6.9613606,50.9381485]}},{"type":"Feature","properties":{"denkmalnummer":85,"strasse":"Lochnerstrasse","kurzbezeichnung":"Schule","adresse":"50674 Köln, Lochnerstrasse 13-15","baujahr":"1899","nummer":"13-15","plz":50674},"geometry":{"type":"Point","coordinates":[6.9355173231055,50.930003]}},{"type":"Feature","properties":{"denkmalnummer":86,"strasse":"Lothringer Strasse","kurzbezeichnung":"Allee","adresse":"50677 Köln, Lothringer Strasse o.Nr.","baujahr":"19","nummer":"o.Nr.","plz":50677},"geometry":{"type":"Point","coordinates":[6.9485746,50.9242706]}},{"type":"Feature","properties":{"denkmalnummer":87,"strasse":"Ludolf-Camphausen-Strasse","kurzbezeichnung":"Allee","adresse":"50672 Köln, Ludolf-Camphausen-Strasse o.Nr.","baujahr":"1912","nummer":"o.Nr.","plz":50672},"geometry":{"type":"Point","coordinates":[6.9320677,50.9423232]}},{"type":"Feature","properties":{"denkmalnummer":88,"strasse":"Luxemburger Strasse","kurzbezeichnung":"Wohn- u. Geschäftshaus","adresse":"50674 Köln, Luxemburger Strasse 66","baujahr":"1890","nummer":"66","plz":50674},"geometry":{"type":"Point","coordinates":[6.9380532,50.9259957]}},{"type":"Feature","properties":{"denkmalnummer":89,"strasse":"Luxemburger Strasse","kurzbezeichnung":"Wohn- u. Geschäftshaus","adresse":"50674 Köln, Luxemburger Strasse 80","baujahr":"1890","nummer":"80","plz":50674},"geometry":{"type":"Point","coordinates":[6.93758437108108,50.92559635]}},{"type":"Feature","properties":{"denkmalnummer":90,"strasse":"Mainzer Strasse","kurzbezeichnung":"Allee","adresse":"50678 Köln, Mainzer Strasse o.Nr.","baujahr":"1900","nummer":"o.Nr.","plz":50678},"geometry":{"type":"Point","coordinates":[6.9640501,50.9208112]}},{"type":"Feature","properties":{"denkmalnummer":91,"strasse":"Markmannsgasse ","kurzbezeichnung":"Wohn- u. Geschäftshaus","adresse":"50667 Köln, Markmannsgasse  7","baujahr":"1937","nummer":"7","plz":50667},"geometry":{"type":"Point","coordinates":[6.9621187,50.9367867]}},{"type":"Feature","properties":{"denkmalnummer":92,"strasse":"Marsplatz ","kurzbezeichnung":"Steinerne Pumpe","adresse":"50667 Köln, Marsplatz  o.Nr.","baujahr":"18","nummer":"o.Nr.","plz":50667},"geometry":{"type":"Point","coordinates":[6.9594795,50.9376335]}},{"type":"Feature","properties":{"denkmalnummer":94,"strasse":"Mauritiussteinweg","kurzbezeichnung":"Wolkenburg, ehem. Kloster","adresse":"50676 Köln, Mauritiussteinweg 59","baujahr":"1735","nummer":"59","plz":50676},"geometry":{"type":"Point","coordinates":[6.9454342,50.9323905]}},{"type":"Feature","properties":{"denkmalnummer":95,"strasse":"Melchiorstrasse","kurzbezeichnung":"Feuerwache","adresse":"50670 Köln, Melchiorstrasse 3","baujahr":"1888","nummer":"3","plz":50670},"geometry":{"type":"Point","coordinates":[6.95458580184544,50.9521542]}},{"type":"Feature","properties":{"denkmalnummer":96,"strasse":"Merlostrasse","kurzbezeichnung":"Allee","adresse":"50668 Köln, Merlostrasse o.Nr.","baujahr":"1900","nummer":"o.Nr.","plz":50668},"geometry":{"type":"Point","coordinates":[6.9634428,50.9543987]}},{"type":"Feature","properties":{"denkmalnummer":97,"strasse":"Moltkestrasse","kurzbezeichnung":"Allee","adresse":"50674 Köln, Moltkestrasse o.Nr.","baujahr":"19","nummer":"o.Nr.","plz":50674},"geometry":{"type":"Point","coordinates":[6.9325367,50.934183]}},{"type":"Feature","properties":{"denkmalnummer":98,"strasse":"Moselstrasse","kurzbezeichnung":"Allee","adresse":"50674 Köln, Moselstrasse o.Nr.","baujahr":"19","nummer":"o.Nr.","plz":50674},"geometry":{"type":"Point","coordinates":[6.9375874,50.927912]}},{"type":"Feature","properties":{"denkmalnummer":99,"strasse":"Mühlengasse","kurzbezeichnung":"Fabrik-,Verwaltung- u. Wohngebäude (nur Vorderfassade Peters Brauhaus)","adresse":"50667 Köln, Mühlengasse 1-15","baujahr":"1895","nummer":"1-15","plz":50667},"geometry":{"type":"Point","coordinates":[6.9609834,50.9392091]}},{"type":"Feature","properties":{"denkmalnummer":100,"strasse":"Neumarkt ","kurzbezeichnung":"Platzgestaltung / Grünanlage","adresse":"50667 Köln, Neumarkt  o.Nr.","baujahr":"1740","nummer":"o.Nr.","plz":50667},"geometry":{"type":"Point","coordinates":[6.9464629,50.9364057]}},{"type":"Feature","properties":{"denkmalnummer":101,"strasse":"Neumarkt ","kurzbezeichnung":"Gesundheitsamt","adresse":"50667 Köln, Neumarkt  15-19","baujahr":"1908","nummer":"15-19","plz":50667},"geometry":{"type":"Point","coordinates":[6.9464629,50.9364057]}},{"type":"Feature","properties":{"denkmalnummer":102,"strasse":"Neumarkt ","kurzbezeichnung":"Wohn- u. Geschäftshaus","adresse":"50667 Köln, Neumarkt  21","baujahr":"1895","nummer":"21","plz":50667},"geometry":{"type":"Point","coordinates":[6.94809632290833,50.9354506]}},{"type":"Feature","properties":{"denkmalnummer":106,"strasse":"Niehler Strasse","kurzbezeichnung":"Allee","adresse":"50670 Köln, Niehler Strasse o.Nr.","baujahr":"10","nummer":"o.Nr.","plz":50670},"geometry":{"type":"Point","coordinates":[6.9578324,50.9575163]}},{"type":"Feature","properties":{"denkmalnummer":108,"strasse":"Oppenheimstrasse","kurzbezeichnung":"Allee","adresse":"50668 Köln, Oppenheimstrasse o.Nr.","baujahr":"1900","nummer":"o.Nr.","plz":50668},"geometry":{"type":"Point","coordinates":[6.9692181,50.9532661]}},{"type":"Feature","properties":{"denkmalnummer":109,"strasse":"Otto-Fischer-Strasse","kurzbezeichnung":"Wohnhaus","adresse":"50674 Köln, Otto-Fischer-Strasse 3","baujahr":"1890","nummer":"3","plz":50674},"geometry":{"type":"Point","coordinates":[6.93823002848658,50.92652885]}},{"type":"Feature","properties":{"denkmalnummer":110,"strasse":"Otto-Fischer-Strasse","kurzbezeichnung":"Wohnhaus","adresse":"50674 Köln, Otto-Fischer-Strasse 11","baujahr":"1890","nummer":"11","plz":50674},"geometry":{"type":"Point","coordinates":[6.93788606620739,50.9266901]}},{"type":"Feature","properties":{"denkmalnummer":111,"strasse":"Overstolzenstrasse","kurzbezeichnung":"Allee","adresse":"50677 Köln, Overstolzenstrasse o.Nr.","baujahr":"19","nummer":"o.Nr.","plz":50677},"geometry":{"type":"Point","coordinates":[6.9482481,50.9223317]}},{"type":"Feature","properties":{"denkmalnummer":113,"strasse":"Quatermarkt ","kurzbezeichnung":"Kirche, Ruine Alt St. Alban / Gedenkstätte","adresse":"50667 Köln, Quatermarkt  4","baujahr":"1668","nummer":"4","plz":50667},"geometry":{"type":"Point","coordinates":[6.9579683,50.9366833]}},{"type":"Feature","properties":{"denkmalnummer":114,"strasse":"Rathausplatz ","kurzbezeichnung":"Historisches Rathaus, Verwaltungsbauten","adresse":"50667 Köln, Rathausplatz  o.Nr.","baujahr":"1","nummer":"o.Nr.","plz":50667},"geometry":{"type":"Point","coordinates":[6.9588482,50.9384535]}},{"type":"Feature","properties":{"denkmalnummer":115,"strasse":"Rathenauplatz ","kurzbezeichnung":"Grünanlage / Platzanlage","adresse":"50674 Köln, Rathenauplatz  o.Nr.","baujahr":"1891","nummer":"o.Nr.","plz":50674},"geometry":{"type":"Point","coordinates":[6.9371191,50.930575]}},{"type":"Feature","properties":{"denkmalnummer":116,"strasse":"Rathenauplatz ","kurzbezeichnung":"Wohn- u. Geschäftshaus","adresse":"50674 Köln, Rathenauplatz  7","baujahr":"1890","nummer":"7","plz":50674},"geometry":{"type":"Point","coordinates":[6.9371489,50.9304655]}},{"type":"Feature","properties":{"denkmalnummer":117,"strasse":"Rathenauplatz ","kurzbezeichnung":"Wohn- u. Geschäftshaus","adresse":"50674 Köln, Rathenauplatz  30","baujahr":"1890","nummer":"30","plz":50674},"geometry":{"type":"Point","coordinates":[6.93472538670851,50.93200645]}},{"type":"Feature","properties":{"denkmalnummer":118,"strasse":"Reichenspergerplatz ","kurzbezeichnung":"Platzanlage","adresse":"50670 Köln, Reichenspergerplatz  o.Nr.","baujahr":"1900","nummer":"o.Nr.","plz":50670},"geometry":{"type":"Point","coordinates":[6.9635623,50.9539657]}},{"type":"Feature","properties":{"denkmalnummer":119,"strasse":"Reischplatz ","kurzbezeichnung":"Platzanlage mit Pumpe / Grünanlage","adresse":"50679 Köln, Reischplatz  o.Nr.","baujahr":"1912","nummer":"o.Nr.","plz":50679},"geometry":{"type":"Point","coordinates":[6.9764923,50.9360642]}},{"type":"Feature","properties":{"denkmalnummer":124,"strasse":"Rheingasse ","kurzbezeichnung":"Overstolzenhaus","adresse":"50676 Köln, Rheingasse  8","baujahr":"13","nummer":"8","plz":50676},"geometry":{"type":"Point","coordinates":[6.96043723321098,50.93412245]}},{"type":"Feature","properties":{"denkmalnummer":125,"strasse":"Claudiusstrasse","kurzbezeichnung":"Grünanlage (Römerpark)","adresse":"50678 Köln, Claudiusstrasse o.Nr.","baujahr":"1895","nummer":"o.Nr.","plz":50678},"geometry":{"type":"Point","coordinates":[6.9665646,50.9201346]}},{"type":"Feature","properties":{"denkmalnummer":126,"strasse":"Rolandstrasse","kurzbezeichnung":"Allee","adresse":"50677 Köln, Rolandstrasse o.Nr.","baujahr":"19","nummer":"o.Nr.","plz":50677},"geometry":{"type":"Point","coordinates":[6.9573607,50.9187516]}},{"type":"Feature","properties":{"denkmalnummer":127,"strasse":"Rolandstrasse","kurzbezeichnung":"Wohnhaus","adresse":"50677 Köln, Rolandstrasse 92","baujahr":"1894","nummer":"92","plz":50677},"geometry":{"type":"Point","coordinates":[6.95473446933991,50.9197904]}},{"type":"Feature","properties":{"denkmalnummer":128,"strasse":"Rudolfplatz","kurzbezeichnung":"Stadttor Hahnentor, Platzanlage","adresse":"50674 Köln, Rudolfplatz o.Nr.","baujahr":"13","nummer":"o.Nr.","plz":50674},"geometry":{"type":"Point","coordinates":[6.9395199,50.9364015]}},{"type":"Feature","properties":{"denkmalnummer":129,"strasse":"Sachsenring ","kurzbezeichnung":"Grünanlage / parkartige Straßengestaltung","adresse":"50677 Köln, Sachsenring  o.Nr.","baujahr":"19","nummer":"o.Nr.","plz":50677},"geometry":{"type":"Point","coordinates":[6.9465867,50.926196]}},{"type":"Feature","properties":{"denkmalnummer":130,"strasse":"Sachsenring ","kurzbezeichnung":"KD-Bronzeskulptur, Diana mit springender Antilope","adresse":"50677 Köln, Sachsenring  o.Nr.","baujahr":"1916","nummer":"o.Nr.","plz":50677},"geometry":{"type":"Point","coordinates":[6.9465867,50.926196]}},{"type":"Feature","properties":{"denkmalnummer":131,"strasse":"Sachsenring ","kurzbezeichnung":"Stadtbefestigungsturm (ehem. Windmühle (Uhlrepforte)","adresse":"50677 Köln, Sachsenring  42","baujahr":"13","nummer":"42","plz":50677},"geometry":{"type":"Point","coordinates":[6.95298698289658,50.9241207]}},{"type":"Feature","properties":{"denkmalnummer":133,"strasse":"Schaevenstrasse","kurzbezeichnung":"nur Fassaden, Verwaltungsbau","adresse":"50676 Köln, Schaevenstrasse 1 b","baujahr":"1910","nummer":"1 b","plz":50676},"geometry":{"type":"Point","coordinates":[6.9416522,50.9331889]}},{"type":"Feature","properties":{"denkmalnummer":134,"strasse":"Schaurtestrasse","kurzbezeichnung":"Platzgestaltung","adresse":"50679 Köln, Schaurtestrasse o.Nr.","baujahr":"1911","nummer":"o.Nr.","plz":50679},"geometry":{"type":"Point","coordinates":[6.9759923,50.9333666]}},{"type":"Feature","properties":{"denkmalnummer":135,"strasse":"Schmalbeinstrasse","kurzbezeichnung":"Allee","adresse":"50674 Köln, Schmalbeinstrasse o.Nr.","baujahr":"1911","nummer":"o.Nr.","plz":50674},"geometry":{"type":"Point","coordinates":[6.9302219,50.9374854]}},{"type":"Feature","properties":{"denkmalnummer":138,"strasse":"Severinstrasse","kurzbezeichnung":"Wohnhaus","adresse":"50678 Köln, Severinstrasse 15","baujahr":"1676","nummer":"15","plz":50678},"geometry":{"type":"Point","coordinates":[6.9590219,50.922548]}},{"type":"Feature","properties":{"denkmalnummer":139,"strasse":"Severinstrasse","kurzbezeichnung":"Wachgebäude / Alte Wache","adresse":"50676 Köln, Severinstrasse 241","baujahr":"1840","nummer":"241","plz":50676},"geometry":{"type":"Point","coordinates":[6.95643928263233,50.93082435]}},{"type":"Feature","properties":{"denkmalnummer":140,"strasse":"Spichernstrasse","kurzbezeichnung":"Wohnhaus","adresse":"50672 Köln, Spichernstrasse 25","baujahr":"1890","nummer":"25","plz":50672},"geometry":{"type":"Point","coordinates":[6.93731395485831,50.9437827]}},{"type":"Feature","properties":{"denkmalnummer":141,"strasse":"Spichernstrasse","kurzbezeichnung":"Schule","adresse":"50672 Köln, Spichernstrasse 54-56","baujahr":"1899","nummer":"54-56","plz":50672},"geometry":{"type":"Point","coordinates":[6.9390207,50.9447079]}},{"type":"Feature","properties":{"denkmalnummer":142,"strasse":"Spichernstrasse","kurzbezeichnung":"Grünanlage / Stadtgarten","adresse":"50672 Köln, Spichernstrasse o.Nr.","baujahr":"1827","nummer":"o.Nr.","plz":50672},"geometry":{"type":"Point","coordinates":[6.9390207,50.9447079]}},{"type":"Feature","properties":{"denkmalnummer":143,"strasse":"Stauderstrasse","kurzbezeichnung":"Allee","adresse":"50674 Köln, Stauderstrasse o.Nr.","baujahr":"20","nummer":"o.Nr.","plz":50674},"geometry":{"type":"Point","coordinates":[6.9348096,50.9258911]}},{"type":"Feature","properties":{"denkmalnummer":144,"strasse":"Subbelrather Strasse","kurzbezeichnung":"Allee","adresse":"50672 Köln, Subbelrather Strasse o.Nr.","baujahr":"20","nummer":"o.Nr.","plz":50672},"geometry":{"type":"Point","coordinates":[6.9342212,50.9480302]}},{"type":"Feature","properties":{"denkmalnummer":145,"strasse":"Sudermanplatz ","kurzbezeichnung":"Platzgestaltung / Grünanlage","adresse":"50670 Köln, Sudermanplatz  o.Nr.","baujahr":"1900","nummer":"o.Nr.","plz":50670},"geometry":{"type":"Point","coordinates":[6.9544923,50.9511446]}},{"type":"Feature","properties":{"denkmalnummer":146,"strasse":"Sudermanstrasse","kurzbezeichnung":"Allee","adresse":"50670 Köln, Sudermanstrasse o.Nr.","baujahr":"1900","nummer":"o.Nr.","plz":50670},"geometry":{"type":"Point","coordinates":[6.9555787,50.9511872]}},{"type":"Feature","properties":{"denkmalnummer":147,"strasse":"Teutoburger Strasse","kurzbezeichnung":"Allee","adresse":"50678 Köln, Teutoburger Strasse o.Nr.","baujahr":"1900","nummer":"o.Nr.","plz":50678},"geometry":{"type":"Point","coordinates":[6.9629513,50.9187978]}},{"type":"Feature","properties":{"denkmalnummer":148,"strasse":"Theodor-Heuss-Ring ","kurzbezeichnung":"Grünanlage","adresse":"50668 Köln, Theodor-Heuss-Ring  o.Nr.","baujahr":"1891","nummer":"o.Nr.","plz":50668},"geometry":{"type":"Point","coordinates":[6.9588828,50.950148]}},{"type":"Feature","properties":{"denkmalnummer":152,"strasse":"Ubierring ","kurzbezeichnung":"Wohn- u. Geschäftshaus","adresse":"50678 Köln, Ubierring  23","baujahr":"1903","nummer":"23","plz":50678},"geometry":{"type":"Point","coordinates":[6.9623974180286,50.92178395]}},{"type":"Feature","properties":{"denkmalnummer":153,"strasse":"Ubierring ","kurzbezeichnung":"Museumsgebäude Rautenstrauch-Joest","adresse":"50678 Köln, Ubierring  45","baujahr":"1904","nummer":"45","plz":50678},"geometry":{"type":"Point","coordinates":[6.9646707177573,50.92244225]}},{"type":"Feature","properties":{"denkmalnummer":154,"strasse":"Universitätsstrasse","kurzbezeichnung":"Grünanlage / Innerer Grüngürtel mit Aachener Weiher","adresse":"50674 Köln, Universitätsstrasse o.Nr.","baujahr":"1923","nummer":"o.Nr.","plz":50674},"geometry":{"type":"Point","coordinates":[6.9250037,50.9334832]}},{"type":"Feature","properties":{"denkmalnummer":156,"strasse":"Venloer Strasse","kurzbezeichnung":"Allee","adresse":"50672 Köln, Venloer Strasse o.Nr.","baujahr":"20","nummer":"o.Nr.","plz":50672},"geometry":{"type":"Point","coordinates":[6.9336411,50.9432203]}},{"type":"Feature","properties":{"denkmalnummer":160,"strasse":"Volksgartenstrasse","kurzbezeichnung":"Allee","adresse":"50677 Köln, Volksgartenstrasse o.Nr.","baujahr":"1890","nummer":"o.Nr.","plz":50677},"geometry":{"type":"Point","coordinates":[6.9527452,50.9202379]}},{"type":"Feature","properties":{"denkmalnummer":161,"strasse":"Vondelstrasse","kurzbezeichnung":"Feuerwache","adresse":"50677 Köln, Vondelstrasse 6-8","baujahr":"1904","nummer":"6-8","plz":50677},"geometry":{"type":"Point","coordinates":[6.9557364,50.9203445]}},{"type":"Feature","properties":{"denkmalnummer":162,"strasse":"Von-Sandt-Platz ","kurzbezeichnung":"Platzanlage / Grünanlage","adresse":"50679 Köln, Von-Sandt-Platz  o.Nr.","baujahr":"1911","nummer":"o.Nr.","plz":50679},"geometry":{"type":"Point","coordinates":[6.9771516,50.9391356]}},{"type":"Feature","properties":{"denkmalnummer":163,"strasse":"Vorgebirgstrasse","kurzbezeichnung":"Allee","adresse":"50677 Köln, Vorgebirgstrasse o.Nr.","baujahr":"1890","nummer":"o.Nr.","plz":50677},"geometry":{"type":"Point","coordinates":[6.9505149,50.9201959]}},{"type":"Feature","properties":{"denkmalnummer":164,"strasse":"Waidmarkt ","kurzbezeichnung":"Hermann-Josef-Brunnen","adresse":"50676 Köln, Waidmarkt  o.Nr.","baujahr":"1894","nummer":"o.Nr.","plz":50676},"geometry":{"type":"Point","coordinates":[6.9564334,50.9316925]}},{"type":"Feature","properties":{"denkmalnummer":165,"strasse":"Weißenburgstrasse","kurzbezeichnung":"Allee","adresse":"50670 Köln, Weißenburgstrasse o.Nr.","baujahr":"1900","nummer":"o.Nr.","plz":50670},"geometry":{"type":"Point","coordinates":[6.9547883,50.9541754]}},{"type":"Feature","properties":{"denkmalnummer":166,"strasse":"Wörthstrasse","kurzbezeichnung":"Allee","adresse":"50668 Köln, Wörthstrasse o.Nr.","baujahr":"1910","nummer":"o.Nr.","plz":50668},"geometry":{"type":"Point","coordinates":[6.9651494,50.9531365]}},{"type":"Feature","properties":{"denkmalnummer":167,"strasse":"Worringer Strasse","kurzbezeichnung":"Allee","adresse":"50668 Köln, Worringer Strasse o.Nr.","baujahr":"1900","nummer":"o.Nr.","plz":50668},"geometry":{"type":"Point","coordinates":[6.968538,50.9536042]}},{"type":"Feature","properties":{"denkmalnummer":168,"strasse":"Zeughausstrasse","kurzbezeichnung":"Kölnisches Stadtmuseum Zeughaus","adresse":"50667 Köln, Zeughausstrasse 1","baujahr":"1591","nummer":"1","plz":50667},"geometry":{"type":"Point","coordinates":[6.94985286791419,50.9412399]}},{"type":"Feature","properties":{"denkmalnummer":169,"strasse":"Zeughausstrasse","kurzbezeichnung":"ehem. Wachgebäude (Teil Köln. Stadtmuseum)","adresse":"50667 Köln, Zeughausstrasse 3","baujahr":"1840","nummer":"3","plz":50667},"geometry":{"type":"Point","coordinates":[6.94985286791419,50.9412399]}},{"type":"Feature","properties":{"denkmalnummer":170,"strasse":"Zeughausstrasse","kurzbezeichnung":"Wohnhaus","adresse":"50667 Köln, Zeughausstrasse 13","baujahr":"1898","nummer":"13","plz":50667},"geometry":{"type":"Point","coordinates":[6.94669212707844,50.940873]}},{"type":"Feature","properties":{"denkmalnummer":171,"strasse":"Zeughausstrasse","kurzbezeichnung":"Rest d. röm. Stadtbefestigung (Römerturm)","adresse":"50667 Köln, Zeughausstrasse 13","baujahr":"1","nummer":"13","plz":50667},"geometry":{"type":"Point","coordinates":[6.94669212707844,50.940873]}},{"type":"Feature","properties":{"denkmalnummer":172,"strasse":"Zugweg ","kurzbezeichnung":"Schule","adresse":"50677 Köln, Zugweg  42","baujahr":"1898","nummer":"42","plz":50677},"geometry":{"type":"Point","coordinates":[6.9569193627252,50.91811975]}},{"type":"Feature","properties":{"denkmalnummer":173,"strasse":"Zwirnerstrasse","kurzbezeichnung":"Schule","adresse":"50678 Köln, Zwirnerstrasse 15-17","baujahr":"1900","nummer":"15-17","plz":50678},"geometry":{"type":"Point","coordinates":[6.9621232,50.9260569]}},{"type":"Feature","properties":{"denkmalnummer":181,"strasse":"Bahnhofstrasse","kurzbezeichnung":"Allee","adresse":"50999 Köln, Bahnhofstrasse o.Nr.","baujahr":"1900","nummer":"o.Nr.","plz":50999},"geometry":{"type":"Point","coordinates":[7.0077059,50.8652216]}},{"type":"Feature","properties":{"denkmalnummer":182,"strasse":"Bayenthalgürtel ","kurzbezeichnung":"Allee","adresse":"50968 Köln, Bayenthalgürtel  o.Nr.","baujahr":"1903","nummer":"o.Nr.","plz":50968},"geometry":{"type":"Point","coordinates":[6.9765871,50.9066404]}},{"type":"Feature","properties":{"denkmalnummer":183,"strasse":"Bayenthalgürtel ","kurzbezeichnung":"Bismarckturm mit Grünanlage","adresse":"50968 Köln, Bayenthalgürtel  o.Nr.","baujahr":"1902","nummer":"o.Nr.","plz":50968},"geometry":{"type":"Point","coordinates":[6.9765871,50.9066404]}},{"type":"Feature","properties":{"denkmalnummer":190,"strasse":"Frankstrasse","kurzbezeichnung":"Friedhof","adresse":"50996 Köln, Frankstrasse o.Nr.","baujahr":"1925","nummer":"o.Nr.","plz":50996},"geometry":{"type":"Point","coordinates":[6.987645,50.8946961]}},{"type":"Feature","properties":{"denkmalnummer":194,"strasse":"Godorfer Strasse","kurzbezeichnung":"ehem. Schule","adresse":"50997 Köln, Godorfer Strasse 2","baujahr":"1914","nummer":"2","plz":50997},"geometry":{"type":"Point","coordinates":[6.95884564531403,50.85874015]}},{"type":"Feature","properties":{"denkmalnummer":195,"strasse":"Goethestrasse","kurzbezeichnung":"Allee","adresse":"50968 Köln, Goethestrasse o.Nr.","baujahr":"1900","nummer":"o.Nr.","plz":50968},"geometry":{"type":"Point","coordinates":[6.9703847,50.9008852]}},{"type":"Feature","properties":{"denkmalnummer":197,"strasse":"Goltsteinstrasse","kurzbezeichnung":"Allee","adresse":"50968 Köln, Goltsteinstrasse o.Nr.","baujahr":"20","nummer":"o.Nr.","plz":50968},"geometry":{"type":"Point","coordinates":[6.9709756,50.9058172]}},{"type":"Feature","properties":{"denkmalnummer":198,"strasse":"Gustav-Heinemann-Ufer","kurzbezeichnung":"Allee","adresse":"50968 Köln, Gustav-Heinemann-Ufer o.Nr.","baujahr":"1898","nummer":"o.Nr.","plz":50968},"geometry":{"type":"Point","coordinates":[6.9702093,50.9163027]}},{"type":"Feature","properties":{"denkmalnummer":199,"strasse":"Hauptstrasse","kurzbezeichnung":"Wohnhaus","adresse":"50996 Köln, Hauptstrasse 30","baujahr":"1928","nummer":"30","plz":50996},"geometry":{"type":"Point","coordinates":[6.99143595708001,50.89577855]}},{"type":"Feature","properties":{"denkmalnummer":200,"strasse":"Heinrich-Heine-Strasse","kurzbezeichnung":"Allee","adresse":"50996 Köln, Heinrich-Heine-Strasse o.Nr.","baujahr":"20","nummer":"o.Nr.","plz":50996},"geometry":{"type":"Point","coordinates":[7.005125,50.8886396]}},{"type":"Feature","properties":{"denkmalnummer":201,"strasse":"Höninger Platz ","kurzbezeichnung":"Südfriedhof mit Eingangsbauten u. Leichenhalle","adresse":"50969 Köln, Höninger Platz  25","baujahr":"1895","nummer":"25","plz":50969},"geometry":{"type":"Point","coordinates":[6.9439743668413,50.9004391]}},{"type":"Feature","properties":{"denkmalnummer":201,"strasse":"Höninger Platz","kurzbezeichnung":"Grabstätte Gebhardt/Lambrich","adresse":"50969 Köln, Höninger Platz 25","baujahr":"1913","nummer":"25","plz":50969},"geometry":{"type":"Point","coordinates":[6.9439743668413,50.9004391]}},{"type":"Feature","properties":{"denkmalnummer":201,"strasse":"Höninger Platz","kurzbezeichnung":"Grabstätte Oebel","adresse":"50969 Köln, Höninger Platz 25","baujahr":"0","nummer":"25","plz":50969},"geometry":{"type":"Point","coordinates":[6.9439743668413,50.9004391]}},{"type":"Feature","properties":{"denkmalnummer":201,"strasse":"Höninger Platz","kurzbezeichnung":"Grabstätte Sabel","adresse":"50969 Köln, Höninger Platz 25","baujahr":"1895","nummer":"25","plz":50969},"geometry":{"type":"Point","coordinates":[6.9439743668413,50.9004391]}},{"type":"Feature","properties":{"denkmalnummer":204,"strasse":"Kardorfer Strasse","kurzbezeichnung":"Allee","adresse":"50968 Köln, Kardorfer Strasse o.Nr.","baujahr":"1923","nummer":"o.Nr.","plz":50968},"geometry":{"type":"Point","coordinates":[6.9540201,50.8967432]}},{"type":"Feature","properties":{"denkmalnummer":205,"strasse":"Kastanienallee","kurzbezeichnung":"Allee","adresse":"50968 Köln, Kastanienallee o.Nr.","baujahr":"1900","nummer":"o.Nr.","plz":50968},"geometry":{"type":"Point","coordinates":[6.9782005,50.9013642]}},{"type":"Feature","properties":{"denkmalnummer":207,"strasse":"Leyboldstrasse","kurzbezeichnung":"Allee","adresse":"50968 Köln, Leyboldstrasse o.Nr.","baujahr":"1900","nummer":"o.Nr.","plz":50968},"geometry":{"type":"Point","coordinates":[6.9719219,50.8980722]}},{"type":"Feature","properties":{"denkmalnummer":208,"strasse":"Lindenallee","kurzbezeichnung":"Allee","adresse":"50968 Köln, Lindenallee o.Nr.","baujahr":"1900","nummer":"o.Nr.","plz":50968},"geometry":{"type":"Point","coordinates":[6.9739495,50.8953488]}},{"type":"Feature","properties":{"denkmalnummer":209,"strasse":"Marienburger Strasse","kurzbezeichnung":"Allee","adresse":"50968 Köln, Marienburger Strasse o.Nr.","baujahr":"1900","nummer":"o.Nr.","plz":50968},"geometry":{"type":"Point","coordinates":[6.9736784,50.9012409]}},{"type":"Feature","properties":{"denkmalnummer":210,"strasse":"Marktstrasse","kurzbezeichnung":"Bunker","adresse":"50968 Köln, Marktstrasse 6 c","baujahr":"1942","nummer":"6 c","plz":50968},"geometry":{"type":"Point","coordinates":[6.9589336,50.9106196]}},{"type":"Feature","properties":{"denkmalnummer":211,"strasse":"Markusplatz ","kurzbezeichnung":"Platzanlage","adresse":"50968 Köln, Markusplatz  o.Nr.","baujahr":"20","nummer":"o.Nr.","plz":50968},"geometry":{"type":"Point","coordinates":[6.94758,50.8999837]}},{"type":"Feature","properties":{"denkmalnummer":212,"strasse":"Markusstrasse","kurzbezeichnung":"Allee","adresse":"50968 Köln, Markusstrasse o.Nr.","baujahr":"20","nummer":"o.Nr.","plz":50968},"geometry":{"type":"Point","coordinates":[6.9459662,50.9007088]}},{"type":"Feature","properties":{"denkmalnummer":213,"strasse":"Mathiaskirchplatz ","kurzbezeichnung":"Platzgestaltung / Grünanlage","adresse":"50968 Köln, Mathiaskirchplatz  o.Nr.","baujahr":"1904","nummer":"o.Nr.","plz":50968},"geometry":{"type":"Point","coordinates":[6.96632,50.9096088]}},{"type":"Feature","properties":{"denkmalnummer":214,"strasse":"Trenkebergstrasse","kurzbezeichnung":"Friedhof","adresse":"50997 Köln, Trenkebergstrasse o.Nr.","baujahr":"16","nummer":"o.Nr.","plz":50997},"geometry":{"type":"Point","coordinates":[6.9282171,50.8595407]}},{"type":"Feature","properties":{"denkmalnummer":216,"strasse":"Militärringstrasse","kurzbezeichnung":"Grünanlage ","adresse":"50968 Köln, Militärringstrasse o.Nr.","baujahr":"1927","nummer":"o.Nr.","plz":50968},"geometry":{"type":"Point","coordinates":[6.9749744,50.894033]}},{"type":"Feature","properties":{"denkmalnummer":219,"strasse":"Parkstrasse","kurzbezeichnung":"Brunnen","adresse":"50968 Köln, Parkstrasse o.Nr.","baujahr":"1910","nummer":"o.Nr.","plz":50968},"geometry":{"type":"Point","coordinates":[6.9805458,50.9012425]}},{"type":"Feature","properties":{"denkmalnummer":220,"strasse":"Parkstrasse","kurzbezeichnung":"Wohnhaus","adresse":"50968 Köln, Parkstrasse 20","baujahr":"1925","nummer":"20","plz":50968},"geometry":{"type":"Point","coordinates":[6.98000011576674,50.90078995]}},{"type":"Feature","properties":{"denkmalnummer":222,"strasse":"Pferdmengesstrasse","kurzbezeichnung":"Allee","adresse":"50968 Köln, Pferdmengesstrasse o.Nr.","baujahr":"1900","nummer":"o.Nr.","plz":50968},"geometry":{"type":"Point","coordinates":[6.9725421,50.9029608]}},{"type":"Feature","properties":{"denkmalnummer":223,"strasse":"Pingsdorfer Strasse","kurzbezeichnung":"Allee","adresse":"50968 Köln, Pingsdorfer Strasse o.Nr.","baujahr":"1924","nummer":"o.Nr.","plz":50968},"geometry":{"type":"Point","coordinates":[6.954462,50.8952566]}},{"type":"Feature","properties":{"denkmalnummer":225,"strasse":"Römerstrasse","kurzbezeichnung":"Hofanlage Lennartzhof","adresse":"50996 Köln, Römerstrasse 85","baujahr":"18","nummer":"85","plz":50996},"geometry":{"type":"Point","coordinates":[6.9916339,50.88352225]}},{"type":"Feature","properties":{"denkmalnummer":226,"strasse":"Rondorfer Strasse","kurzbezeichnung":"Allee","adresse":"50968 Köln, Rondorfer Strasse o.Nr.","baujahr":"1900","nummer":"o.Nr.","plz":50968},"geometry":{"type":"Point","coordinates":[6.9682409,50.895805]}},{"type":"Feature","properties":{"denkmalnummer":227,"strasse":"Schillingsrotter Platz","kurzbezeichnung":"Grünanlage / Platzgestaltung","adresse":"50968 Köln, Schillingsrotter Platz o.Nr.","baujahr":"1900","nummer":"o.Nr.","plz":50968},"geometry":{"type":"Point","coordinates":[6.9724088,50.8954177]}},{"type":"Feature","properties":{"denkmalnummer":230,"strasse":"Schönhauser Strasse","kurzbezeichnung":"Allee","adresse":"50968 Köln, Schönhauser Strasse o.Nr.","baujahr":"1900","nummer":"o.Nr.","plz":50968},"geometry":{"type":"Point","coordinates":[6.9694174,50.9132648]}},{"type":"Feature","properties":{"denkmalnummer":233,"strasse":"Sürther Strasse","kurzbezeichnung":"Friedhof","adresse":"50996 Köln, Sürther Strasse o.Nr.","baujahr":"1925","nummer":"o.Nr.","plz":50996},"geometry":{"type":"Point","coordinates":[6.998774,50.8846023]}},{"type":"Feature","properties":{"denkmalnummer":234,"strasse":"Sürther Strasse","kurzbezeichnung":"Wohnhaus","adresse":"50996 Köln, Sürther Strasse 71-73","baujahr":"1925","nummer":"71-73","plz":50996},"geometry":{"type":"Point","coordinates":[6.998774,50.8846023]}},{"type":"Feature","properties":{"denkmalnummer":235,"strasse":"Theophanoplatz","kurzbezeichnung":"Brunnen","adresse":"50969 Köln, Theophanoplatz o.Nr.","baujahr":"1913","nummer":"o.Nr.","plz":50969},"geometry":{"type":"Point","coordinates":[6.9426665,50.9122127]}},{"type":"Feature","properties":{"denkmalnummer":236,"strasse":"Theophanoplatz","kurzbezeichnung":"Grünanlage","adresse":"50969 Köln, Theophanoplatz o.Nr.","baujahr":"1910","nummer":"o.Nr.","plz":50969},"geometry":{"type":"Point","coordinates":[6.9426665,50.9122127]}},{"type":"Feature","properties":{"denkmalnummer":237,"strasse":"Tiberiusstrasse","kurzbezeichnung":"Allee","adresse":"50968 Köln, Tiberiusstrasse o.Nr.","baujahr":"1900","nummer":"o.Nr.","plz":50968},"geometry":{"type":"Point","coordinates":[6.9774032,50.9009281]}},{"type":"Feature","properties":{"denkmalnummer":240,"strasse":"Volkspark","kurzbezeichnung":"Grünanlage mit Pavillion","adresse":"50968 Köln, Volkspark o.Nr.","baujahr":"1923","nummer":"o.Nr.","plz":50968},"geometry":{"type":"Point","coordinates":[6.95845894962153,50.8951655]}},{"type":"Feature","properties":{"denkmalnummer":242,"strasse":"Vorgebirgsplatz","kurzbezeichnung":"Grünanlage (Vorgebirgspark)","adresse":"50969 Köln, Vorgebirgsplatz o.Nr.","baujahr":"1911","nummer":"o.Nr.","plz":50969},"geometry":{"type":"Point","coordinates":[6.94505,50.9118935]}},{"type":"Feature","properties":{"denkmalnummer":243,"strasse":"Vorgebirgsplatz ","kurzbezeichnung":"Platzanlage","adresse":"50969 Köln, Vorgebirgsplatz  o.Nr.","baujahr":"1911","nummer":"o.Nr.","plz":50969},"geometry":{"type":"Point","coordinates":[6.94505,50.9118935]}},{"type":"Feature","properties":{"denkmalnummer":250,"strasse":"Zollstocksweg","kurzbezeichnung":"Platzanlage","adresse":"50969 Köln, Zollstocksweg o.Nr.","baujahr":"1925","nummer":"o.Nr.","plz":50969},"geometry":{"type":"Point","coordinates":[6.9434726,50.9096583]}},{"type":"Feature","properties":{"denkmalnummer":252,"strasse":"Aachener Strasse","kurzbezeichnung":"Grünanlage","adresse":"50934 Köln, Aachener Strasse o.Nr.","baujahr":"1920","nummer":"o.Nr.","plz":50934},"geometry":{"type":"Point","coordinates":[6.6939054,50.936964]}},{"type":"Feature","properties":{"denkmalnummer":254,"strasse":"Aachener Strasse","kurzbezeichnung":"Friedhof Melaten","adresse":"50931 Köln, Aachener Strasse 204","baujahr":"1813","nummer":"204","plz":50931},"geometry":{"type":"Point","coordinates":[6.91600969541077,50.93735595]}},{"type":"Feature","properties":{"denkmalnummer":254,"strasse":"Aachener Strasse","kurzbezeichnung":"Grabstätte Schmitz","adresse":"50931 Köln, Aachener Strasse 204","baujahr":"1903","nummer":"204","plz":50931},"geometry":{"type":"Point","coordinates":[6.91600969541077,50.93735595]}},{"type":"Feature","properties":{"denkmalnummer":254,"strasse":"Aachener Strasse","kurzbezeichnung":"Grabstätte Evers-Marcus","adresse":"50931 Köln, Aachener Strasse 204","baujahr":"1860","nummer":"204","plz":50931},"geometry":{"type":"Point","coordinates":[6.91600969541077,50.93735595]}},{"type":"Feature","properties":{"denkmalnummer":254,"strasse":"Aachener Strasse","kurzbezeichnung":"Grabstätte Lammine","adresse":"50931 Köln, Aachener Strasse 204","baujahr":"1910","nummer":"204","plz":50931},"geometry":{"type":"Point","coordinates":[6.91600969541077,50.93735595]}},{"type":"Feature","properties":{"denkmalnummer":254,"strasse":"Aachener Strasse","kurzbezeichnung":"Grabstätte Losen-Frese","adresse":"50931 Köln, Aachener Strasse 204","baujahr":"1889","nummer":"204","plz":50931},"geometry":{"type":"Point","coordinates":[6.91600969541077,50.93735595]}},{"type":"Feature","properties":{"denkmalnummer":254,"strasse":"Aachener Strasse","kurzbezeichnung":"Grabstätte Müller-Franz","adresse":"50931 Köln, Aachener Strasse 204","baujahr":"1924","nummer":"204","plz":50931},"geometry":{"type":"Point","coordinates":[6.91600969541077,50.93735595]}},{"type":"Feature","properties":{"denkmalnummer":254,"strasse":"Aachener Strasse","kurzbezeichnung":"Grabstätte Cox","adresse":"50931 Köln, Aachener Strasse 204","baujahr":"1860","nummer":"204","plz":50931},"geometry":{"type":"Point","coordinates":[6.91600969541077,50.93735595]}},{"type":"Feature","properties":{"denkmalnummer":254,"strasse":"Aachener Strasse","kurzbezeichnung":"Grabstätte Anheiser","adresse":"50931 Köln, Aachener Strasse 204","baujahr":"1947","nummer":"204","plz":50931},"geometry":{"type":"Point","coordinates":[6.91600969541077,50.93735595]}},{"type":"Feature","properties":{"denkmalnummer":254,"strasse":"Aachener Strasse","kurzbezeichnung":"Grabstätte Deichmann","adresse":"50931 Köln, Aachener Strasse 204","baujahr":"0","nummer":"204","plz":50931},"geometry":{"type":"Point","coordinates":[6.91600969541077,50.93735595]}},{"type":"Feature","properties":{"denkmalnummer":254,"strasse":"Aachener Strasse","kurzbezeichnung":"Grabstätte Japha-Kerz","adresse":"50931 Köln, Aachener Strasse 204","baujahr":"1892","nummer":"204","plz":50931},"geometry":{"type":"Point","coordinates":[6.91600969541077,50.93735595]}},{"type":"Feature","properties":{"denkmalnummer":254,"strasse":"Aachener Strasse","kurzbezeichnung":"Grabstätte Mies","adresse":"50931 Köln, Aachener Strasse 204","baujahr":"1856","nummer":"204","plz":50931},"geometry":{"type":"Point","coordinates":[6.91600969541077,50.93735595]}},{"type":"Feature","properties":{"denkmalnummer":254,"strasse":"Aachener Strasse","kurzbezeichnung":"Grabstätte Kalbitzer","adresse":"50931 Köln, Aachener Strasse 204","baujahr":"0","nummer":"204","plz":50931},"geometry":{"type":"Point","coordinates":[6.91600969541077,50.93735595]}},{"type":"Feature","properties":{"denkmalnummer":255,"strasse":"Aachener Strasse","kurzbezeichnung":"Kapelle","adresse":"50931 Köln, Aachener Strasse 204","baujahr":"1474","nummer":"204","plz":50931},"geometry":{"type":"Point","coordinates":[6.91600969541077,50.93735595]}},{"type":"Feature","properties":{"denkmalnummer":259,"strasse":"Arnulfstrasse","kurzbezeichnung":"Allee","adresse":"50937 Köln, Arnulfstrasse o.Nr.","baujahr":"1910","nummer":"o.Nr.","plz":50937},"geometry":{"type":"Point","coordinates":[6.9298349,50.9202306]}},{"type":"Feature","properties":{"denkmalnummer":260,"strasse":"Asbergplatz","kurzbezeichnung":"Platzanlage","adresse":"50937 Köln, Asbergplatz o.Nr.","baujahr":"1912","nummer":"o.Nr.","plz":50937},"geometry":{"type":"Point","coordinates":[6.9200534,50.9101933]}},{"type":"Feature","properties":{"denkmalnummer":265,"strasse":"Beethovenpark","kurzbezeichnung":"Platzanlage","adresse":"50937 Köln, Beethovenpark o.Nr.","baujahr":"1924","nummer":"o.Nr.","plz":50937},"geometry":{"type":"Point","coordinates":[6.91168882964125,50.9111783]}},{"type":"Feature","properties":{"denkmalnummer":266,"strasse":"Belvederestrasse","kurzbezeichnung":"Grünanlage, Verteidigungsanlage, Zwischenwerk","adresse":"50933 Köln, Belvederestrasse o.Nr.","baujahr":"1800","nummer":"o.Nr.","plz":50933},"geometry":{"type":"Point","coordinates":[6.8774281,50.9415206]}},{"type":"Feature","properties":{"denkmalnummer":267,"strasse":"Belvederestrasse","kurzbezeichnung":"Hofanlage Petershof","adresse":"50933 Köln, Belvederestrasse 17","baujahr":"1896","nummer":"17","plz":50933},"geometry":{"type":"Point","coordinates":[6.877331605704,50.9408366]}},{"type":"Feature","properties":{"denkmalnummer":268,"strasse":"Belvederestrasse","kurzbezeichnung":"ehem. Bahnhofsgebäude","adresse":"50933 Köln, Belvederestrasse 147","baujahr":"1939","nummer":"147","plz":50933},"geometry":{"type":"Point","coordinates":[6.87160095282847,50.94709815]}},{"type":"Feature","properties":{"denkmalnummer":269,"strasse":"Berrenrather Strasse","kurzbezeichnung":"Schule","adresse":"50937 Köln, Berrenrather Strasse 350-352","baujahr":"1901","nummer":"350-352","plz":50937},"geometry":{"type":"Point","coordinates":[6.9197447,50.9128556]}},{"type":"Feature","properties":{"denkmalnummer":270,"strasse":"Birkenallee","kurzbezeichnung":"von unregelmäßigen Bäumen begleiteter Weg","adresse":"50858 Köln, Birkenallee o.Nr.","baujahr":"30","nummer":"o.Nr.","plz":50858},"geometry":{"type":"Point","coordinates":[6.8612491,50.9333813]}},{"type":"Feature","properties":{"denkmalnummer":272,"strasse":"Braunstrasse","kurzbezeichnung":"Allee","adresse":"50933 Köln, Braunstrasse o.Nr.","baujahr":"1900","nummer":"o.Nr.","plz":50933},"geometry":{"type":"Point","coordinates":[6.8985132,50.9370602]}},{"type":"Feature","properties":{"denkmalnummer":273,"strasse":"Brucknerstrasse","kurzbezeichnung":"Grünanlage","adresse":"50931 Köln, Brucknerstrasse o.Nr.","baujahr":"20","nummer":"o.Nr.","plz":50931},"geometry":{"type":"Point","coordinates":[6.9174573,50.9350432]}},{"type":"Feature","properties":{"denkmalnummer":274,"strasse":"Clarenbachstrasse","kurzbezeichnung":"Grünanlage mit Kanal, Brücke, Kanalabschlüsse","adresse":"50931 Köln, Clarenbachstrasse o.Nr.","baujahr":"1923","nummer":"o.Nr.","plz":50931},"geometry":{"type":"Point","coordinates":[6.9242383,50.9355083]}},{"type":"Feature","properties":{"denkmalnummer":275,"strasse":"Decksteiner Strasse","kurzbezeichnung":"Grünanlage, Allee","adresse":"50935 Köln, Decksteiner Strasse o.Nr.","baujahr":"0","nummer":"o.Nr.","plz":50935},"geometry":{"type":"Point","coordinates":[6.9000793,50.9172762]}},{"type":"Feature","properties":{"denkmalnummer":276,"strasse":"Decksteiner Strasse","kurzbezeichnung":"ehem. Kommunalfriedhof, Portal","adresse":"50935 Köln, Decksteiner Strasse o.Nr.","baujahr":"19","nummer":"o.Nr.","plz":50935},"geometry":{"type":"Point","coordinates":[6.9000793,50.9172762]}},{"type":"Feature","properties":{"denkmalnummer":278,"strasse":"De-Noel-Platz","kurzbezeichnung":"Platzanlage","adresse":"50937 Köln, De-Noel-Platz o.Nr.","baujahr":"1904","nummer":"o.Nr.","plz":50937},"geometry":{"type":"Point","coordinates":[6.9268755,50.9231393]}},{"type":"Feature","properties":{"denkmalnummer":279,"strasse":"Dr.-Johannes-Honnef-Strasse","kurzbezeichnung":"KD-Kriegerdenkmal","adresse":"50859 Köln, Dr.-Johannes-Honnef-Strasse o.Nr.","baujahr":"1920","nummer":"o.Nr.","plz":50859},"geometry":{"type":"Point","coordinates":[6.8290687,50.9456977]}},{"type":"Feature","properties":{"denkmalnummer":283,"strasse":"Dürener Strasse","kurzbezeichnung":"ehem. Herrenhaus einer Hofanlage","adresse":"50931 Köln, Dürener Strasse 285","baujahr":"1759","nummer":"285","plz":50931},"geometry":{"type":"Point","coordinates":[6.9234919,50.9331344]}},{"type":"Feature","properties":{"denkmalnummer":284,"strasse":"Dürener Strasse","kurzbezeichnung":"KD-Bildstock","adresse":"50858 Köln, Dürener Strasse (vor 456)","baujahr":"19","nummer":"(vor 456)","plz":50858},"geometry":{"type":"Point","coordinates":[6.8607277,50.921122]}},{"type":"Feature","properties":{"denkmalnummer":285,"strasse":"Euskirchener Strasse","kurzbezeichnung":"Grünanlage","adresse":"50935 Köln, Euskirchener Strasse o.Nr.","baujahr":"1930","nummer":"o.Nr.","plz":50935},"geometry":{"type":"Point","coordinates":[6.9154538,50.9173758]}},{"type":"Feature","properties":{"denkmalnummer":286,"strasse":"Euskirchener Strasse","kurzbezeichnung":"Schule","adresse":"50935 Köln, Euskirchener Strasse 50-50 a","baujahr":"1923","nummer":"50-50 a","plz":50935},"geometry":{"type":"Point","coordinates":[6.9154538,50.9173758]}},{"type":"Feature","properties":{"denkmalnummer":287,"strasse":"Frankenstrasse","kurzbezeichnung":"Allee","adresse":"50858 Köln, Frankenstrasse o.Nr.","baujahr":"20","nummer":"o.Nr.","plz":50858},"geometry":{"type":"Point","coordinates":[6.8666025,50.9341091]}},{"type":"Feature","properties":{"denkmalnummer":288,"strasse":"Friedrich-Schmidt-Strasse","kurzbezeichnung":"Allee","adresse":"50931 Köln, Friedrich-Schmidt-Strasse o.Nr.","baujahr":"1900","nummer":"o.Nr.","plz":50931},"geometry":{"type":"Point","coordinates":[6.9114668,50.934463]}},{"type":"Feature","properties":{"denkmalnummer":289,"strasse":"Fürst-Pückler-Strasse","kurzbezeichnung":"Allee","adresse":"50935 Köln, Fürst-Pückler-Strasse o.Nr.","baujahr":"1900","nummer":"o.Nr.","plz":50935},"geometry":{"type":"Point","coordinates":[6.9053471,50.930034]}},{"type":"Feature","properties":{"denkmalnummer":290,"strasse":"Geisbergstrasse","kurzbezeichnung":"Hofanlage Komarhof","adresse":"50939 Köln, Geisbergstrasse 139","baujahr":"1724","nummer":"139","plz":50939},"geometry":{"type":"Point","coordinates":[6.92570419441975,50.9026943]}},{"type":"Feature","properties":{"denkmalnummer":291,"strasse":"Gleueler Strasse","kurzbezeichnung":"Feuerwache","adresse":"50935 Köln, Gleueler Strasse 223-225","baujahr":"1913","nummer":"223-225","plz":50935},"geometry":{"type":"Point","coordinates":[6.902303,50.918521]}},{"type":"Feature","properties":{"denkmalnummer":292,"strasse":"Heisterbachstrasse","kurzbezeichnung":"Allee","adresse":"50939 Köln, Heisterbachstrasse o.Nr.","baujahr":"1905","nummer":"o.Nr.","plz":50939},"geometry":{"type":"Point","coordinates":[6.9306482,50.9126524]}},{"type":"Feature","properties":{"denkmalnummer":293,"strasse":"Hermann-Pflaume-Strasse","kurzbezeichnung":"Allee","adresse":"50933 Köln, Hermann-Pflaume-Strasse o.Nr.","baujahr":"1900","nummer":"o.Nr.","plz":50933},"geometry":{"type":"Point","coordinates":[6.8967545,50.9359789]}},{"type":"Feature","properties":{"denkmalnummer":294,"strasse":"Hermeskeiler Strasse","kurzbezeichnung":"Kleingartenanlage","adresse":"50935 Köln, Hermeskeiler Strasse o.Nr.","baujahr":"20","nummer":"o.Nr.","plz":50935},"geometry":{"type":"Point","coordinates":[6.9097389,50.9189747]}},{"type":"Feature","properties":{"denkmalnummer":295,"strasse":"Hültzplatz","kurzbezeichnung":"Parkanlage / Kleinarchitektur","adresse":"50933 Köln, Hültzplatz o.Nr.","baujahr":"1900","nummer":"o.Nr.","plz":50933},"geometry":{"type":"Point","coordinates":[6.90456358521894,50.93431265]}},{"type":"Feature","properties":{"denkmalnummer":296,"strasse":"Hültzstrasse","kurzbezeichnung":"Allee","adresse":"50933 Köln, Hültzstrasse o.Nr.","baujahr":"1900","nummer":"o.Nr.","plz":50933},"geometry":{"type":"Point","coordinates":[6.9075554,50.9365076]}},{"type":"Feature","properties":{"denkmalnummer":297,"strasse":"Junkersdorfer Strasse","kurzbezeichnung":"KD-Wegekreuz","adresse":"50933 Köln, Junkersdorfer Strasse o.Nr.","baujahr":"1778","nummer":"o.Nr.","plz":50933},"geometry":{"type":"Point","coordinates":[6.8747846,50.9320535]}},{"type":"Feature","properties":{"denkmalnummer":298,"strasse":"Karl-Schwering-Platz ","kurzbezeichnung":"Grünanlage, Einfriedung","adresse":"50931 Köln, Karl-Schwering-Platz  o.Nr.","baujahr":"1925","nummer":"o.Nr.","plz":50931},"geometry":{"type":"Point","coordinates":[6.9178216,50.9320643]}},{"type":"Feature","properties":{"denkmalnummer":299,"strasse":"Klettenberggürtel","kurzbezeichnung":"Allee","adresse":"50939 Köln, Klettenberggürtel o.Nr.","baujahr":"1905","nummer":"o.Nr.","plz":50939},"geometry":{"type":"Point","coordinates":[6.9238315,50.9121721]}},{"type":"Feature","properties":{"denkmalnummer":300,"strasse":"Klettenberggürtel","kurzbezeichnung":"Parkanlage mit Teich","adresse":"50939 Köln, Klettenberggürtel o.Nr.","baujahr":"1906","nummer":"o.Nr.","plz":50939},"geometry":{"type":"Point","coordinates":[6.9238315,50.9121721]}},{"type":"Feature","properties":{"denkmalnummer":302,"strasse":"Krieler Strasse","kurzbezeichnung":"Allee / Baumreihe","adresse":"50935 Köln, Krieler Strasse o.Nr.","baujahr":"1890","nummer":"o.Nr.","plz":50935},"geometry":{"type":"Point","coordinates":[6.9072267,50.9218593]}},{"type":"Feature","properties":{"denkmalnummer":303,"strasse":"Kringsweg ","kurzbezeichnung":"Platzartige, baumbestandene Straßenerweiterung","adresse":"50931 Köln, Kringsweg  o.Nr.","baujahr":"1910","nummer":"o.Nr.","plz":50931},"geometry":{"type":"Point","coordinates":[6.9224862,50.92869]}},{"type":"Feature","properties":{"denkmalnummer":304,"strasse":"Landgrafenstrasse","kurzbezeichnung":"Allee","adresse":"50931 Köln, Landgrafenstrasse o.Nr.","baujahr":"1900","nummer":"o.Nr.","plz":50931},"geometry":{"type":"Point","coordinates":[6.9093125,50.9329413]}},{"type":"Feature","properties":{"denkmalnummer":305,"strasse":"Leonhardsgasse ","kurzbezeichnung":"KD-Wegekreuz","adresse":"50859 Köln, Leonhardsgasse  o.Nr.","baujahr":"1867","nummer":"o.Nr.","plz":50859},"geometry":{"type":"Point","coordinates":[6.8263357,50.9659523]}},{"type":"Feature","properties":{"denkmalnummer":307,"strasse":"Lindenthalgürtel","kurzbezeichnung":"Allee","adresse":"50935 Köln, Lindenthalgürtel o.Nr.","baujahr":"1905","nummer":"o.Nr.","plz":50935},"geometry":{"type":"Point","coordinates":[6.9098117,50.9266892]}},{"type":"Feature","properties":{"denkmalnummer":308,"strasse":"Lindenweg","kurzbezeichnung":"ehem. Friedhof","adresse":"50858 Köln, Lindenweg o.Nr.","baujahr":"1860","nummer":"o.Nr.","plz":50858},"geometry":{"type":"Point","coordinates":[6.8569355,50.9331097]}},{"type":"Feature","properties":{"denkmalnummer":310,"strasse":"Lortzingplatz","kurzbezeichnung":"Parkanlage","adresse":"50931 Köln, Lortzingplatz o.Nr.","baujahr":"1907","nummer":"o.Nr.","plz":50931},"geometry":{"type":"Point","coordinates":[6.9115288,50.9310521]}},{"type":"Feature","properties":{"denkmalnummer":311,"strasse":"Luxemburger Strasse","kurzbezeichnung":"Allee","adresse":"50937 Köln, Luxemburger Strasse o.Nr.","baujahr":"19","nummer":"o.Nr.","plz":50937},"geometry":{"type":"Point","coordinates":[6.923779,50.9123765]}},{"type":"Feature","properties":{"denkmalnummer":312,"strasse":"Manderscheider Platz","kurzbezeichnung":"Platz- u. Parkanlage","adresse":"50937 Köln, Manderscheider Platz o.Nr.","baujahr":"1911","nummer":"o.Nr.","plz":50937},"geometry":{"type":"Point","coordinates":[6.9228613,50.9147062]}},{"type":"Feature","properties":{"denkmalnummer":314,"strasse":"Militärringstrasse","kurzbezeichnung":"Grünanlagen, Verteidigungsanlage Zwischenwerk Vib, Sportanlagen","adresse":"50937 Köln, Militärringstrasse o.Nr.","baujahr":"1919","nummer":"o.Nr.","plz":50937},"geometry":{"type":"Point","coordinates":[6.9152982,50.9043134]}},{"type":"Feature","properties":{"denkmalnummer":316,"strasse":"Moltkestrasse","kurzbezeichnung":"Friedhof","adresse":"50859 Köln, Moltkestrasse o.Nr.","baujahr":"1880","nummer":"o.Nr.","plz":50859},"geometry":{"type":"Point","coordinates":[6.8273601,50.9404514]}},{"type":"Feature","properties":{"denkmalnummer":317,"strasse":"Nikolausplatz ","kurzbezeichnung":"Platzanlage","adresse":"50937 Köln, Nikolausplatz  o.Nr.","baujahr":"1912","nummer":"o.Nr.","plz":50937},"geometry":{"type":"Point","coordinates":[6.9271901,50.9186186]}},{"type":"Feature","properties":{"denkmalnummer":319,"strasse":"Pauliplatz ","kurzbezeichnung":"Platzanlage","adresse":"50933 Köln, Pauliplatz  o.Nr.","baujahr":"1914","nummer":"o.Nr.","plz":50933},"geometry":{"type":"Point","coordinates":[6.8979165,50.9381055]}},{"type":"Feature","properties":{"denkmalnummer":320,"strasse":"Paulistrasse","kurzbezeichnung":"Brunnen","adresse":"50933 Köln, Paulistrasse o.Nr.","baujahr":"1914","nummer":"o.Nr.","plz":50933},"geometry":{"type":"Point","coordinates":[6.8969408,50.9389732]}},{"type":"Feature","properties":{"denkmalnummer":321,"strasse":"Petersbergstrasse","kurzbezeichnung":"Allee","adresse":"50939 Köln, Petersbergstrasse o.Nr.","baujahr":"1900","nummer":"o.Nr.","plz":50939},"geometry":{"type":"Point","coordinates":[6.9259778,50.9110122]}},{"type":"Feature","properties":{"denkmalnummer":322,"strasse":"Pfarriusstrasse","kurzbezeichnung":"Allee","adresse":"50935 Köln, Pfarriusstrasse o.Nr.","baujahr":"1900","nummer":"o.Nr.","plz":50935},"geometry":{"type":"Point","coordinates":[6.9066224,50.9300808]}},{"type":"Feature","properties":{"denkmalnummer":323,"strasse":"Raschdorffstrasse","kurzbezeichnung":"Allee","adresse":"50933 Köln, Raschdorffstrasse o.Nr.","baujahr":"1900","nummer":"o.Nr.","plz":50933},"geometry":{"type":"Point","coordinates":[6.8916485,50.9353314]}},{"type":"Feature","properties":{"denkmalnummer":324,"strasse":"Rautenstrauchstrasse","kurzbezeichnung":"Parkanlage / Allee mit Kanal","adresse":"50931 Köln, Rautenstrauchstrasse o.Nr.","baujahr":"1920","nummer":"o.Nr.","plz":50931},"geometry":{"type":"Point","coordinates":[6.9126014,50.9335948]}},{"type":"Feature","properties":{"denkmalnummer":325,"strasse":"Remigiusstrasse","kurzbezeichnung":"Allee","adresse":"50937 Köln, Remigiusstrasse o.Nr.","baujahr":"1910","nummer":"o.Nr.","plz":50937},"geometry":{"type":"Point","coordinates":[6.9300513,50.9203987]}},{"type":"Feature","properties":{"denkmalnummer":326,"strasse":"Robert-Blum-Strasse","kurzbezeichnung":"Allee","adresse":"50935 Köln, Robert-Blum-Strasse o.Nr.","baujahr":"1900","nummer":"o.Nr.","plz":50935},"geometry":{"type":"Point","coordinates":[6.9049107,50.9244928]}},{"type":"Feature","properties":{"denkmalnummer":327,"strasse":"Robert-Koch-Strasse","kurzbezeichnung":"Baumreihe","adresse":"50937 Köln, Robert-Koch-Strasse o.Nr.","baujahr":"1900","nummer":"o.Nr.","plz":50937},"geometry":{"type":"Point","coordinates":[6.9238214,50.9236887]}},{"type":"Feature","properties":{"denkmalnummer":329,"strasse":"Siebengebirgsallee ","kurzbezeichnung":"Allee","adresse":"50939 Köln, Siebengebirgsallee  o.Nr.","baujahr":"1901","nummer":"o.Nr.","plz":50939},"geometry":{"type":"Point","coordinates":[6.921032,50.9073822]}},{"type":"Feature","properties":{"denkmalnummer":331,"strasse":"Statthalterhofallee ","kurzbezeichnung":"Allee","adresse":"50858 Köln, Statthalterhofallee  o.Nr.","baujahr":"30","nummer":"o.Nr.","plz":50858},"geometry":{"type":"Point","coordinates":[6.8664609,50.9305005]}},{"type":"Feature","properties":{"denkmalnummer":332,"strasse":"Statthalterhofweg ","kurzbezeichnung":"Heiligenhäuschen","adresse":"50858 Köln, Statthalterhofweg  o.Nr.","baujahr":"19","nummer":"o.Nr.","plz":50858},"geometry":{"type":"Point","coordinates":[6.8572908,50.9296447]}},{"type":"Feature","properties":{"denkmalnummer":333,"strasse":"Sülzburgstrasse","kurzbezeichnung":"Allee","adresse":"50937 Köln, Sülzburgstrasse o.Nr.","baujahr":"1900","nummer":"o.Nr.","plz":50937},"geometry":{"type":"Point","coordinates":[6.9254011,50.9170483]}},{"type":"Feature","properties":{"denkmalnummer":334,"strasse":"Sülzgürtel ","kurzbezeichnung":"Allee","adresse":"50937 Köln, Sülzgürtel  o.Nr.","baujahr":"1900","nummer":"o.Nr.","plz":50937},"geometry":{"type":"Point","coordinates":[6.91998,50.9150168]}},{"type":"Feature","properties":{"denkmalnummer":335,"strasse":"Universitätsstrasse","kurzbezeichnung":"Grünanlage mit Allee","adresse":"50931 Köln, Universitätsstrasse o.Nr.","baujahr":"20","nummer":"o.Nr.","plz":50931},"geometry":{"type":"Point","coordinates":[6.9269129,50.9300789]}},{"type":"Feature","properties":{"denkmalnummer":337,"strasse":"Vincenz-Statz-Strasse","kurzbezeichnung":"Allee","adresse":"50933 Köln, Vincenz-Statz-Strasse o.Nr.","baujahr":"1900","nummer":"o.Nr.","plz":50933},"geometry":{"type":"Point","coordinates":[6.8897815,50.9355583]}},{"type":"Feature","properties":{"denkmalnummer":338,"strasse":"Vitalisstrasse","kurzbezeichnung":"Allee","adresse":"50827 Köln, Vitalisstrasse o.Nr.","baujahr":"1900","nummer":"o.Nr.","plz":50827},"geometry":{"type":"Point","coordinates":[6.8935344,50.9506552]}},{"type":"Feature","properties":{"denkmalnummer":340,"strasse":"Voigtelstrasse","kurzbezeichnung":"Allee","adresse":"50933 Köln, Voigtelstrasse o.Nr.","baujahr":"1900","nummer":"o.Nr.","plz":50933},"geometry":{"type":"Point","coordinates":[6.8944498,50.9354895]}},{"type":"Feature","properties":{"denkmalnummer":341,"strasse":"Wendelinstrasse","kurzbezeichnung":"Schule","adresse":"50933 Köln, Wendelinstrasse 64","baujahr":"1905","nummer":"64","plz":50933},"geometry":{"type":"Point","coordinates":[6.88015006270531,50.94129825]}},{"type":"Feature","properties":{"denkmalnummer":342,"strasse":"Weyertal ","kurzbezeichnung":"Allee","adresse":"50937 Köln, Weyertal  o.Nr.","baujahr":"1910","nummer":"o.Nr.","plz":50937},"geometry":{"type":"Point","coordinates":[6.925955,50.9236848]}},{"type":"Feature","properties":{"denkmalnummer":343,"strasse":"Wüllnerstrasse","kurzbezeichnung":"Allee","adresse":"50931 Köln, Wüllnerstrasse o.Nr.","baujahr":"1900","nummer":"o.Nr.","plz":50931},"geometry":{"type":"Point","coordinates":[6.9112972,50.9315892]}},{"type":"Feature","properties":{"denkmalnummer":344,"strasse":"Zülpicher Strasse","kurzbezeichnung":"Grünanlage, Sportanlage","adresse":"50935 Köln, Zülpicher Strasse o.Nr.","baujahr":"1919","nummer":"o.Nr.","plz":50935},"geometry":{"type":"Point","coordinates":[6.9108854,50.9197398]}},{"type":"Feature","properties":{"denkmalnummer":346,"strasse":"Alpenerplatz ","kurzbezeichnung":"Platzanlage mit Wegekreuz","adresse":"50825 Köln, Alpenerplatz  o.Nr.","baujahr":"19","nummer":"o.Nr.","plz":50825},"geometry":{"type":"Point","coordinates":[6.9062181,50.9560451]}},{"type":"Feature","properties":{"denkmalnummer":347,"strasse":"Alpenerplatz ","kurzbezeichnung":"Wohnhaus","adresse":"50825 Köln, Alpenerplatz  3","baujahr":"1900","nummer":"3","plz":50825},"geometry":{"type":"Point","coordinates":[6.90636124111493,50.95609605]}},{"type":"Feature","properties":{"denkmalnummer":350,"strasse":"Brandtsplatz","kurzbezeichnung":"Platzanlage","adresse":"50825 Köln, Brandtsplatz o.Nr.","baujahr":"1910","nummer":"o.Nr.","plz":50825},"geometry":{"type":"Point","coordinates":[6.9199999,50.955765]}},{"type":"Feature","properties":{"denkmalnummer":352,"strasse":"Christine-Teusch-Platz","kurzbezeichnung":"Platzanlage","adresse":"50823 Köln, Christine-Teusch-Platz o.Nr.","baujahr":"1912","nummer":"o.Nr.","plz":50823},"geometry":{"type":"Point","coordinates":[6.92663784345724,50.954664]}},{"type":"Feature","properties":{"denkmalnummer":354,"strasse":"Ehrenfeldgürtel ","kurzbezeichnung":"Wohn- u. Geschäftshaus","adresse":"50823 Köln, Ehrenfeldgürtel  153","baujahr":"1905","nummer":"153","plz":50823},"geometry":{"type":"Point","coordinates":[6.9212958,50.9550018]}},{"type":"Feature","properties":{"denkmalnummer":355,"strasse":"Ehrenfeldgürtel ","kurzbezeichnung":"Wohn- u. Geschäftshaus","adresse":"50823 Köln, Ehrenfeldgürtel  130","baujahr":"1908","nummer":"130","plz":50823},"geometry":{"type":"Point","coordinates":[6.920644,50.9537922]}},{"type":"Feature","properties":{"denkmalnummer":356,"strasse":"Eichendorffstrasse","kurzbezeichnung":"Allee","adresse":"50823 Köln, Eichendorffstrasse o.Nr.","baujahr":"1900","nummer":"o.Nr.","plz":50823},"geometry":{"type":"Point","coordinates":[6.9226751,50.9560909]}},{"type":"Feature","properties":{"denkmalnummer":357,"strasse":"Feltenstrasse","kurzbezeichnung":"ehem. Friedhof","adresse":"50827 Köln, Feltenstrasse o.Nr.","baujahr":"1855","nummer":"o.Nr.","plz":50827},"geometry":{"type":"Point","coordinates":[6.9054234,50.9609751]}},{"type":"Feature","properties":{"denkmalnummer":360,"strasse":"Frohnhofstrasse","kurzbezeichnung":"Hofanlage Pisdorhof","adresse":"50827 Köln, Frohnhofstrasse 37","baujahr":"1787","nummer":"37","plz":50827},"geometry":{"type":"Point","coordinates":[6.90817728965564,50.9664015]}},{"type":"Feature","properties":{"denkmalnummer":361,"strasse":"Frohnhofstrasse","kurzbezeichnung":"Hofanlage Frohnhof","adresse":"50827 Köln, Frohnhofstrasse 41","baujahr":"1768","nummer":"41","plz":50827},"geometry":{"type":"Point","coordinates":[6.90738661675198,50.96667105]}},{"type":"Feature","properties":{"denkmalnummer":362,"strasse":"Gravenreuthstrasse","kurzbezeichnung":"Schule","adresse":"50823 Köln, Gravenreuthstrasse 10","baujahr":"1910","nummer":"10","plz":50823},"geometry":{"type":"Point","coordinates":[6.92138626150746,50.95269735]}},{"type":"Feature","properties":{"denkmalnummer":363,"strasse":"Gravensteiner Strasse","kurzbezeichnung":"Allee","adresse":"50825 Köln, Gravensteiner Strasse o.Nr.","baujahr":"1914","nummer":"o.Nr.","plz":50825},"geometry":{"type":"Point","coordinates":[6.9163226,50.9612207]}},{"type":"Feature","properties":{"denkmalnummer":367,"strasse":"Klütschgasse ","kurzbezeichnung":"Pumpe","adresse":"50829 Köln, Klütschgasse  o.Nr.","baujahr":"19","nummer":"o.Nr.","plz":50829},"geometry":{"type":"Point","coordinates":[6.8589484,50.982514]}},{"type":"Feature","properties":{"denkmalnummer":368,"strasse":"Lenauplatz","kurzbezeichnung":"Platzanlage","adresse":"50825 Köln, Lenauplatz o.Nr.","baujahr":"1910","nummer":"o.Nr.","plz":50825},"geometry":{"type":"Point","coordinates":[6.9185831,50.9570539]}},{"type":"Feature","properties":{"denkmalnummer":369,"strasse":"Marienstrasse","kurzbezeichnung":"Wohnhaus","adresse":"50825 Köln, Marienstrasse 54","baujahr":"1894","nummer":"54","plz":50825},"geometry":{"type":"Point","coordinates":[6.91136719888634,50.9546569]}},{"type":"Feature","properties":{"denkmalnummer":370,"strasse":"Merkensstrasse","kurzbezeichnung":"Wohn- u. Geschäftshaus","adresse":"50825 Köln, Merkensstrasse 1","baujahr":"1905","nummer":"1","plz":50825},"geometry":{"type":"Point","coordinates":[6.9202616,50.9554979]}},{"type":"Feature","properties":{"denkmalnummer":373,"strasse":"Nagelschmiedgasse ","kurzbezeichnung":"Wohnhaus","adresse":"50827 Köln, Nagelschmiedgasse  12","baujahr":"19","nummer":"12","plz":50827},"geometry":{"type":"Point","coordinates":[6.89911956719462,50.95925315]}},{"type":"Feature","properties":{"denkmalnummer":374,"strasse":"Neptunplatz ","kurzbezeichnung":"Hallenbad","adresse":"50823 Köln, Neptunplatz  1","baujahr":"1912","nummer":"1","plz":50823},"geometry":{"type":"Point","coordinates":[6.9191535,50.9471335]}},{"type":"Feature","properties":{"denkmalnummer":375,"strasse":"Nüssenberger Strasse","kurzbezeichnung":"Schule","adresse":"50829 Köln, Nüssenberger Strasse 18","baujahr":"1874","nummer":"18","plz":50829},"geometry":{"type":"Point","coordinates":[6.86490259715872,50.97493755]}},{"type":"Feature","properties":{"denkmalnummer":377,"strasse":"Obere Dorfstrasse","kurzbezeichnung":"Rest einer Hofanlage, Wohnhaus","adresse":"50829 Köln, Obere Dorfstrasse 4","baujahr":"1774","nummer":"4","plz":50829},"geometry":{"type":"Point","coordinates":[6.85816092557737,50.9808641]}},{"type":"Feature","properties":{"denkmalnummer":378,"strasse":"Ottostrasse","kurzbezeichnung":"Allee","adresse":"50823 Köln, Ottostrasse o.Nr.","baujahr":"19","nummer":"o.Nr.","plz":50823},"geometry":{"type":"Point","coordinates":[6.9229935,50.9527034]}},{"type":"Feature","properties":{"denkmalnummer":380,"strasse":"Reiherweg ","kurzbezeichnung":"Allee","adresse":"50829 Köln, Reiherweg  o.Nr.","baujahr":"30","nummer":"o.Nr.","plz":50829},"geometry":{"type":"Point","coordinates":[6.8819005,50.9581796]}},{"type":"Feature","properties":{"denkmalnummer":381,"strasse":"Rochusstrasse","kurzbezeichnung":"Grünanlage Pfeiffersche Garten","adresse":"50827 Köln, Rochusstrasse o.Nr.","baujahr":"1890","nummer":"o.Nr.","plz":50827},"geometry":{"type":"Point","coordinates":[6.903551,50.9764098]}},{"type":"Feature","properties":{"denkmalnummer":382,"strasse":"Rochusstrasse","kurzbezeichnung":"Rest einer Hofanlage","adresse":"50827 Köln, Rochusstrasse 91-93","baujahr":"19","nummer":"91-93","plz":50827},"geometry":{"type":"Point","coordinates":[6.9042929,50.9769655]}},{"type":"Feature","properties":{"denkmalnummer":383,"strasse":"Rochusstrasse","kurzbezeichnung":"Rest einer Hofanlage Lindweilerhof","adresse":"50827 Köln, Rochusstrasse 80","baujahr":"19","nummer":"80","plz":50827},"geometry":{"type":"Point","coordinates":[6.90310300042246,50.9606519]}},{"type":"Feature","properties":{"denkmalnummer":384,"strasse":"Röntgenstrasse","kurzbezeichnung":"Baumreihe","adresse":"50823 Köln, Röntgenstrasse o.Nr.","baujahr":"1900","nummer":"o.Nr.","plz":50823},"geometry":{"type":"Point","coordinates":[6.9248866,50.9562036]}},{"type":"Feature","properties":{"denkmalnummer":385,"strasse":"Roßstrasse","kurzbezeichnung":"TD, ehem. Kwatta-Fabrik","adresse":"50823 Köln, Roßstrasse 12-16","baujahr":"1890","nummer":"12-16","plz":50823},"geometry":{"type":"Point","coordinates":[6.9217587,50.9441007]}},{"type":"Feature","properties":{"denkmalnummer":386,"strasse":"Rothehausstrasse","kurzbezeichnung":"Wohnhaus","adresse":"50823 Köln, Rothehausstrasse 30","baujahr":"1875","nummer":"30","plz":50823},"geometry":{"type":"Point","coordinates":[6.91803840196196,50.94751735]}},{"type":"Feature","properties":{"denkmalnummer":387,"strasse":"Simarplatz","kurzbezeichnung":"Baumreihe, Platzgestaltung","adresse":"50825 Köln, Simarplatz o.Nr.","baujahr":"1900","nummer":"o.Nr.","plz":50825},"geometry":{"type":"Point","coordinates":[6.9171621,50.9554713]}},{"type":"Feature","properties":{"denkmalnummer":388,"strasse":"Subbelrather Strasse","kurzbezeichnung":"Kleingärten","adresse":"50823 Köln, Subbelrather Strasse o.Nr.","baujahr":"20","nummer":"o.Nr.","plz":50823},"geometry":{"type":"Point","coordinates":[6.9313906,50.9491032]}},{"type":"Feature","properties":{"denkmalnummer":390,"strasse":"Venloer Strasse","kurzbezeichnung":"Hofanlage Fettenhof","adresse":"50829 Köln, Venloer Strasse 1203","baujahr":"19","nummer":"1203","plz":50829},"geometry":{"type":"Point","coordinates":[6.8412996,50.9816468]}},{"type":"Feature","properties":{"denkmalnummer":391,"strasse":"Venloer Strasse","kurzbezeichnung":"Meilenstein","adresse":"50829 Köln, Venloer Strasse 1271","baujahr":"1844","nummer":"1271","plz":50829},"geometry":{"type":"Point","coordinates":[6.8547461700831,50.97645775]}},{"type":"Feature","properties":{"denkmalnummer":392,"strasse":"Venloer Strasse","kurzbezeichnung":"Westfriedhof","adresse":"50829 Köln, Venloer Strasse 1132","baujahr":"1917","nummer":"1132","plz":50829},"geometry":{"type":"Point","coordinates":[6.87738227770372,50.96805455]}},{"type":"Feature","properties":{"denkmalnummer":392,"strasse":"Venloer Strasse","kurzbezeichnung":"Grabstätte Schmitz","adresse":"50829 Köln, Venloer Strasse 1132","baujahr":"1917","nummer":"1132","plz":50829},"geometry":{"type":"Point","coordinates":[6.87738227770372,50.96805455]}},{"type":"Feature","properties":{"denkmalnummer":396,"strasse":"Vogelsanger Markt ","kurzbezeichnung":"Platzgestaltung / Grünanlage","adresse":"50829 Köln, Vogelsanger Markt  o.Nr.","baujahr":"30","nummer":"o.Nr.","plz":50829},"geometry":{"type":"Point","coordinates":[6.8811197,50.9550414]}},{"type":"Feature","properties":{"denkmalnummer":397,"strasse":"Vogelsanger Strasse","kurzbezeichnung":"TD, Fuhramt","adresse":"50825 Köln, Vogelsanger Strasse 321","baujahr":"1920","nummer":"321","plz":50825},"geometry":{"type":"Point","coordinates":[6.9101908,50.9504934]}},{"type":"Feature","properties":{"denkmalnummer":398,"strasse":"Vogelsanger Strasse","kurzbezeichnung":"Schule","adresse":"50829 Köln, Vogelsanger Strasse 453","baujahr":"1939","nummer":"453","plz":50829},"geometry":{"type":"Point","coordinates":[6.88037923396203,50.9552429]}},{"type":"Feature","properties":{"denkmalnummer":399,"strasse":"Weinsbergstrasse","kurzbezeichnung":"Friedhof Ehrenfeld","adresse":"50823 Köln, Weinsbergstrasse o.Nr.","baujahr":"0","nummer":"o.Nr.","plz":50823},"geometry":{"type":"Point","coordinates":[6.9148371,50.9441991]}},{"type":"Feature","properties":{"denkmalnummer":405,"strasse":"Auguststrasse","kurzbezeichnung":"Schule","adresse":"50733 Köln, Auguststrasse 1","baujahr":"1900","nummer":"1","plz":50733},"geometry":{"type":"Point","coordinates":[6.9518375,50.9608859]}},{"type":"Feature","properties":{"denkmalnummer":408,"strasse":"Blücherstrasse","kurzbezeichnung":"Schule","adresse":"50733 Köln, Blücherstrasse 15-17","baujahr":"1907","nummer":"15-17","plz":50733},"geometry":{"type":"Point","coordinates":[6.95588009856755,50.96685485]}},{"type":"Feature","properties":{"denkmalnummer":409,"strasse":"Boltensternstrasse","kurzbezeichnung":"Allee","adresse":"50735 Köln, Boltensternstrasse o.Nr.","baujahr":"1900","nummer":"o.Nr.","plz":50735},"geometry":{"type":"Point","coordinates":[6.9805677,50.9649601]}},{"type":"Feature","properties":{"denkmalnummer":410,"strasse":"Ehrenbergstrasse","kurzbezeichnung":"Baumreihe","adresse":"50735 Köln, Ehrenbergstrasse o.Nr.","baujahr":"20","nummer":"o.Nr.","plz":50735},"geometry":{"type":"Point","coordinates":[6.9777356,50.9684418]}},{"type":"Feature","properties":{"denkmalnummer":411,"strasse":"Erzbergerplatz ","kurzbezeichnung":"Grünanlage","adresse":"50733 Köln, Erzbergerplatz  o.Nr.","baujahr":"1907","nummer":"o.Nr.","plz":50733},"geometry":{"type":"Point","coordinates":[6.9519997,50.9676026]}},{"type":"Feature","properties":{"denkmalnummer":412,"strasse":"Finkenplatz ","kurzbezeichnung":"Grünanlage mit Brunnen","adresse":"50735 Köln, Finkenplatz  o.Nr.","baujahr":"1912","nummer":"o.Nr.","plz":50735},"geometry":{"type":"Point","coordinates":[6.9604028,50.9785352]}},{"type":"Feature","properties":{"denkmalnummer":415,"strasse":"Florastrasse","kurzbezeichnung":"Allee","adresse":"50733 Köln, Florastrasse o.Nr.","baujahr":"20","nummer":"o.Nr.","plz":50733},"geometry":{"type":"Point","coordinates":[6.9627175,50.9619819]}},{"type":"Feature","properties":{"denkmalnummer":416,"strasse":"Garthestrasse","kurzbezeichnung":"Schule","adresse":"50735 Köln, Garthestrasse 20-24","baujahr":"1929","nummer":"20-24","plz":50735},"geometry":{"type":"Point","coordinates":[6.9738944,50.9644364]}},{"type":"Feature","properties":{"denkmalnummer":417,"strasse":"Geldernstrasse","kurzbezeichnung":"Allee","adresse":"50739 Köln, Geldernstrasse o.Nr.","baujahr":"1900","nummer":"o.Nr.","plz":50739},"geometry":{"type":"Point","coordinates":[6.9401627,50.968565]}},{"type":"Feature","properties":{"denkmalnummer":418,"strasse":"Geldernstrasse","kurzbezeichnung":"ehem. Friedhof","adresse":"50739 Köln, Geldernstrasse o.Nr.","baujahr":"1870","nummer":"o.Nr.","plz":50739},"geometry":{"type":"Point","coordinates":[6.9401627,50.968565]}},{"type":"Feature","properties":{"denkmalnummer":419,"strasse":"Goldfußstrasse","kurzbezeichnung":"Baumreihe","adresse":"50735 Köln, Goldfußstrasse o.Nr.","baujahr":"20","nummer":"o.Nr.","plz":50735},"geometry":{"type":"Point","coordinates":[6.9764211,50.9689283]}},{"type":"Feature","properties":{"denkmalnummer":421,"strasse":"Halfengasse ","kurzbezeichnung":"Schule","adresse":"50735 Köln, Halfengasse  25","baujahr":"1887","nummer":"25","plz":50735},"geometry":{"type":"Point","coordinates":[6.96097516499422,50.9926934]}},{"type":"Feature","properties":{"denkmalnummer":422,"strasse":"Hermesgasse ","kurzbezeichnung":"Friedhof","adresse":"50735 Köln, Hermesgasse  o.Nr.","baujahr":"1870","nummer":"o.Nr.","plz":50735},"geometry":{"type":"Point","coordinates":[6.9597597,50.9906898]}},{"type":"Feature","properties":{"denkmalnummer":423,"strasse":"Hermesgasse ","kurzbezeichnung":"Hochkreuz, Friedhof","adresse":"50735 Köln, Hermesgasse  o.Nr.","baujahr":"1860","nummer":"o.Nr.","plz":50735},"geometry":{"type":"Point","coordinates":[6.9597597,50.9906898]}},{"type":"Feature","properties":{"denkmalnummer":424,"strasse":"Hermesgasse ","kurzbezeichnung":"Grabmal Pastor Wolff, Friedhof","adresse":"50735 Köln, Hermesgasse  o.Nr.","baujahr":"1887","nummer":"o.Nr.","plz":50735},"geometry":{"type":"Point","coordinates":[6.9597597,50.9906898]}},{"type":"Feature","properties":{"denkmalnummer":425,"strasse":"Hermesgasse ","kurzbezeichnung":"Grabmal Maria-Katharina Wolff, Friedhof","adresse":"50735 Köln, Hermesgasse  o.Nr.","baujahr":"1880","nummer":"o.Nr.","plz":50735},"geometry":{"type":"Point","coordinates":[6.9597597,50.9906898]}},{"type":"Feature","properties":{"denkmalnummer":426,"strasse":"Hermesgasse ","kurzbezeichnung":"Figurenstele N.N., Friedhof","adresse":"50735 Köln, Hermesgasse  o.Nr.","baujahr":"1870","nummer":"o.Nr.","plz":50735},"geometry":{"type":"Point","coordinates":[6.9597597,50.9906898]}},{"type":"Feature","properties":{"denkmalnummer":429,"strasse":"Kriegerplatz","kurzbezeichnung":"Grünanlage mit Kleindenkmal","adresse":"50739 Köln, Kriegerplatz o.Nr.","baujahr":"1871","nummer":"o.Nr.","plz":50739},"geometry":{"type":"Point","coordinates":[6.9070087,50.9978805]}},{"type":"Feature","properties":{"denkmalnummer":430,"strasse":"Kuenstrasse","kurzbezeichnung":"Allee","adresse":"50733 Köln, Kuenstrasse o.Nr.","baujahr":"20","nummer":"o.Nr.","plz":50733},"geometry":{"type":"Point","coordinates":[6.963622,50.9610379]}},{"type":"Feature","properties":{"denkmalnummer":432,"strasse":"Leipziger Platz ","kurzbezeichnung":"Grünanlage ","adresse":"50733 Köln, Leipziger Platz  o.Nr.","baujahr":"1905","nummer":"o.Nr.","plz":50733},"geometry":{"type":"Point","coordinates":[6.95574286208329,50.966053]}},{"type":"Feature","properties":{"denkmalnummer":433,"strasse":"Leuthenstrasse","kurzbezeichnung":"ehem. Friedhof, Kriegerdenkmal, Gedenktafel, Grabkreuz","adresse":"50737 Köln, Leuthenstrasse o.Nr.","baujahr":"1750","nummer":"o.Nr.","plz":50737},"geometry":{"type":"Point","coordinates":[6.9466006,50.9794464]}},{"type":"Feature","properties":{"denkmalnummer":437,"strasse":"Mauenheimer Strasse","kurzbezeichnung":"Mauer der Hofanlage Altenberger Hof","adresse":"50733 Köln, Mauenheimer Strasse 92","baujahr":"1749","nummer":"92","plz":50733},"geometry":{"type":"Point","coordinates":[6.94898803927169,50.9685013]}},{"type":"Feature","properties":{"denkmalnummer":438,"strasse":"Merheimer Strasse","kurzbezeichnung":"Allee","adresse":"50733 Köln, Merheimer Strasse o.Nr.","baujahr":"20","nummer":"o.Nr.","plz":50733},"geometry":{"type":"Point","coordinates":[6.9499976,50.9574993]}},{"type":"Feature","properties":{"denkmalnummer":440,"strasse":"Merheimer Strasse","kurzbezeichnung":"Wohn- u. Geschäftshaus","adresse":"50733 Köln, Merheimer Strasse 92","baujahr":"1900","nummer":"92","plz":50733},"geometry":{"type":"Point","coordinates":[6.94903478906115,50.9607623]}},{"type":"Feature","properties":{"denkmalnummer":441,"strasse":"Merheimer Strasse","kurzbezeichnung":"Wohn- u. Geschäftshaus","adresse":"50739 Köln, Merheimer Strasse 390","baujahr":"1900","nummer":"390","plz":50739},"geometry":{"type":"Point","coordinates":[6.94650111022729,50.9733139]}},{"type":"Feature","properties":{"denkmalnummer":444,"strasse":"Merkenicher Strasse","kurzbezeichnung":"ehem. Schule","adresse":"50735 Köln, Merkenicher Strasse 219","baujahr":"1900","nummer":"219","plz":50735},"geometry":{"type":"Point","coordinates":[6.96020745663213,50.99076715]}},{"type":"Feature","properties":{"denkmalnummer":445,"strasse":"Merkenicher Strasse","kurzbezeichnung":"Schule","adresse":"50735 Köln, Merkenicher Strasse 158","baujahr":"1880","nummer":"158","plz":50735},"geometry":{"type":"Point","coordinates":[6.96361644087769,50.9884056]}},{"type":"Feature","properties":{"denkmalnummer":446,"strasse":"Merkenicher Strasse","kurzbezeichnung":"KD-Mauer mit Wegekreuz","adresse":"50735 Köln, Merkenicher Strasse neben 240 a","baujahr":"1868","nummer":"neben 240 a","plz":50735},"geometry":{"type":"Point","coordinates":[6.9590295,50.9951475]}},{"type":"Feature","properties":{"denkmalnummer":447,"strasse":"Naumannstrasse","kurzbezeichnung":"Baumreihe","adresse":"50735 Köln, Naumannstrasse o.Nr.","baujahr":"20","nummer":"o.Nr.","plz":50735},"geometry":{"type":"Point","coordinates":[6.9767239,50.9673283]}},{"type":"Feature","properties":{"denkmalnummer":453,"strasse":"Niehler Strasse","kurzbezeichnung":"Wegekapelle (ggü Graditzer Strasse)","adresse":"50735 Köln, Niehler Strasse o.Nr.","baujahr":"18","nummer":"o.Nr.","plz":50735},"geometry":{"type":"Point","coordinates":[6.960466,50.9802498]}},{"type":"Feature","properties":{"denkmalnummer":454,"strasse":"Niehler Strasse","kurzbezeichnung":"Wohn- u. Geschäftshaus","adresse":"50733 Köln, Niehler Strasse 43","baujahr":"1905","nummer":"43","plz":50733},"geometry":{"type":"Point","coordinates":[6.95816609915413,50.9614229]}},{"type":"Feature","properties":{"denkmalnummer":455,"strasse":"Osterather Strasse","kurzbezeichnung":"Schule","adresse":"50739 Köln, Osterather Strasse 13","baujahr":"1903","nummer":"13","plz":50739},"geometry":{"type":"Point","coordinates":[6.93757333400526,50.95854395]}},{"type":"Feature","properties":{"denkmalnummer":457,"strasse":"Rennbahnstrasse","kurzbezeichnung":"Baumreihe","adresse":"50737 Köln, Rennbahnstrasse o.Nr.","baujahr":"20","nummer":"o.Nr.","plz":50737},"geometry":{"type":"Point","coordinates":[6.9516597,50.9761205]}},{"type":"Feature","properties":{"denkmalnummer":459,"strasse":"Roßbachstrasse","kurzbezeichnung":"Baumreihe","adresse":"50737 Köln, Roßbachstrasse o.Nr.","baujahr":"20","nummer":"o.Nr.","plz":50737},"geometry":{"type":"Point","coordinates":[6.9471996,50.9784655]}},{"type":"Feature","properties":{"denkmalnummer":460,"strasse":"Sebastianstrasse","kurzbezeichnung":"KD-Kriegerdenkmal u. Nepomuk-Statue","adresse":"50735 Köln, Sebastianstrasse o.Nr.","baujahr":"1747","nummer":"o.Nr.","plz":50735},"geometry":{"type":"Point","coordinates":[6.9610516,50.9856552]}},{"type":"Feature","properties":{"denkmalnummer":461,"strasse":"Sebastianstrasse","kurzbezeichnung":"Wohn- u. Geschäftshaus","adresse":"50735 Köln, Sebastianstrasse 100 a","baujahr":"1910","nummer":"100 a","plz":50735},"geometry":{"type":"Point","coordinates":[6.96134502905156,50.9867536]}},{"type":"Feature","properties":{"denkmalnummer":462,"strasse":"Simon-Meister-Strasse","kurzbezeichnung":"Schule","adresse":"50733 Köln, Simon-Meister-Strasse 46","baujahr":"1890","nummer":"46","plz":50733},"geometry":{"type":"Point","coordinates":[6.9473398,50.966023]}},{"type":"Feature","properties":{"denkmalnummer":463,"strasse":"Stammheimer Strasse","kurzbezeichnung":"Schule","adresse":"50735 Köln, Stammheimer Strasse 101","baujahr":"1890","nummer":"101","plz":50735},"geometry":{"type":"Point","coordinates":[6.97591411197014,50.9645109]}},{"type":"Feature","properties":{"denkmalnummer":464,"strasse":"Steinbergerstrasse","kurzbezeichnung":"ehem. Schule","adresse":"50733 Köln, Steinbergerstrasse 40","baujahr":"1900","nummer":"40","plz":50733},"geometry":{"type":"Point","coordinates":[6.9506606,50.9616686]}},{"type":"Feature","properties":{"denkmalnummer":465,"strasse":"Theklastrasse","kurzbezeichnung":"Allee","adresse":"50737 Köln, Theklastrasse o.Nr.","baujahr":"20","nummer":"o.Nr.","plz":50737},"geometry":{"type":"Point","coordinates":[6.9488728,50.9775968]}},{"type":"Feature","properties":{"denkmalnummer":472,"strasse":"Alte Strasse","kurzbezeichnung":"Allee","adresse":"50769 Köln, Alte Strasse o.Nr.","baujahr":"19","nummer":"o.Nr.","plz":50769},"geometry":{"type":"Point","coordinates":[6.8483688,51.0627479]}},{"type":"Feature","properties":{"denkmalnummer":476,"strasse":"Arenzhofstrasse","kurzbezeichnung":"Platzanlage (vor Heinrichshof)","adresse":"50769 Köln, Arenzhofstrasse o.Nr.","baujahr":"19","nummer":"o.Nr.","plz":50769},"geometry":{"type":"Point","coordinates":[6.9050839,51.0387589]}},{"type":"Feature","properties":{"denkmalnummer":477,"strasse":"Arenzhofstrasse","kurzbezeichnung":"Hofanlage","adresse":"50769 Köln, Arenzhofstrasse 38","baujahr":"1812","nummer":"38","plz":50769},"geometry":{"type":"Point","coordinates":[6.90556575,51.03820745]}},{"type":"Feature","properties":{"denkmalnummer":479,"strasse":"Berrischstrasse","kurzbezeichnung":"Schule","adresse":"50769 Köln, Berrischstrasse 134-136","baujahr":"1880","nummer":"134-136","plz":50769},"geometry":{"type":"Point","coordinates":[6.8514767,51.0463601]}},{"type":"Feature","properties":{"denkmalnummer":480,"strasse":"Berrischstrasse","kurzbezeichnung":"Hofanlage","adresse":"50769 Köln, Berrischstrasse 184","baujahr":"1770","nummer":"184","plz":50769},"geometry":{"type":"Point","coordinates":[6.84969315899472,51.0429396]}},{"type":"Feature","properties":{"denkmalnummer":481,"strasse":"Blockstrasse","kurzbezeichnung":"Grenzstein","adresse":"50765 Köln, Blockstrasse o.Nr.","baujahr":"19","nummer":"o.Nr.","plz":50765},"geometry":{"type":"Point","coordinates":[6.8710228,51.0207344]}},{"type":"Feature","properties":{"denkmalnummer":482,"strasse":"Brictiusstrasse","kurzbezeichnung":"KD-Missionskreuz","adresse":"50769 Köln, Brictiusstrasse (vor 22)","baujahr":"1868","nummer":"(vor 22)","plz":50769},"geometry":{"type":"Point","coordinates":[6.9594043,51.0261727]}},{"type":"Feature","properties":{"denkmalnummer":483,"strasse":"Cohnenhofstrasse","kurzbezeichnung":"Kapelle","adresse":"50769 Köln, Cohnenhofstrasse 104","baujahr":"1860","nummer":"104","plz":50769},"geometry":{"type":"Point","coordinates":[6.91652792178516,51.05120155]}},{"type":"Feature","properties":{"denkmalnummer":484,"strasse":"Damiansweg ","kurzbezeichnung":"Friedhof","adresse":"50765 Köln, Damiansweg  o.Nr.","baujahr":"1900","nummer":"o.Nr.","plz":50765},"geometry":{"type":"Point","coordinates":[6.8860443,51.0224737]}},{"type":"Feature","properties":{"denkmalnummer":486,"strasse":"Dresenhofweg","kurzbezeichnung":"Hofanlage","adresse":"50765 Köln, Dresenhofweg 57","baujahr":"1771","nummer":"57","plz":50765},"geometry":{"type":"Point","coordinates":[6.8831179,51.0250429]}},{"type":"Feature","properties":{"denkmalnummer":489,"strasse":"Kirchgasse ","kurzbezeichnung":"Friedhof","adresse":"50765 Köln, Kirchgasse  o.Nr.","baujahr":"1647","nummer":"o.Nr.","plz":50765},"geometry":{"type":"Point","coordinates":[6.8581023,51.0158529]}},{"type":"Feature","properties":{"denkmalnummer":489,"strasse":"Kirchgasse","kurzbezeichnung":"Grabstätte Opfer 1916","adresse":"50765 Köln, Kirchgasse o.Nr.","baujahr":"1916","nummer":"o.Nr.","plz":50765},"geometry":{"type":"Point","coordinates":[6.8581023,51.0158529]}},{"type":"Feature","properties":{"denkmalnummer":489,"strasse":"Kirchgasse ","kurzbezeichnung":"Grabstätte Beines","adresse":"50765 Köln, Kirchgasse  o.Nr.","baujahr":"1860","nummer":"o.Nr.","plz":50765},"geometry":{"type":"Point","coordinates":[6.8581023,51.0158529]}},{"type":"Feature","properties":{"denkmalnummer":490,"strasse":"Frohnhofstrasse","kurzbezeichnung":"KD-Bildstock (Nähe Friedhof)","adresse":"50765 Köln, Frohnhofstrasse o.Nr.","baujahr":"19","nummer":"o.Nr.","plz":50765},"geometry":{"type":"Point","coordinates":[6.8580072,51.015427]}},{"type":"Feature","properties":{"denkmalnummer":492,"strasse":"Further Strasse","kurzbezeichnung":"Wohnhaus","adresse":"50769 Köln, Further Strasse 99","baujahr":"1800","nummer":"99","plz":50769},"geometry":{"type":"Point","coordinates":[6.84860745695266,51.04301105]}},{"type":"Feature","properties":{"denkmalnummer":496,"strasse":"Heinrich-Latz-Strasse","kurzbezeichnung":"Friedhof d.kath. Kirchengemeinde St. Johann","adresse":"50769 Köln, Heinrich-Latz-Strasse o.Nr.","baujahr":"1890","nummer":"o.Nr.","plz":50769},"geometry":{"type":"Point","coordinates":[6.8528559,51.0468676]}},{"type":"Feature","properties":{"denkmalnummer":498,"strasse":"Jungbluthstrasse","kurzbezeichnung":"Friedhof","adresse":"50769 Köln, Jungbluthstrasse o.Nr.","baujahr":"19","nummer":"o.Nr.","plz":50769},"geometry":{"type":"Point","coordinates":[6.9531386,51.0261651]}},{"type":"Feature","properties":{"denkmalnummer":500,"strasse":"Keimesstrasse","kurzbezeichnung":"ehem. Schule","adresse":"50765 Köln, Keimesstrasse 8","baujahr":"1890","nummer":"8","plz":50765},"geometry":{"type":"Point","coordinates":[6.8839299,51.0244863]}},{"type":"Feature","properties":{"denkmalnummer":502,"strasse":"Cohnenhofstrasse","kurzbezeichnung":"Hofanlage Cohnenhof","adresse":"50769 Köln, Cohnenhofstrasse 94","baujahr":"1742","nummer":"94","plz":50769},"geometry":{"type":"Point","coordinates":[6.91789611482941,51.05060695]}},{"type":"Feature","properties":{"denkmalnummer":509,"strasse":"Schmiedhofsweg","kurzbezeichnung":"Friedhof","adresse":"50769 Köln, Schmiedhofsweg o.Nr.","baujahr":"1860","nummer":"o.Nr.","plz":50769},"geometry":{"type":"Point","coordinates":[6.9037146,51.0362523]}},{"type":"Feature","properties":{"denkmalnummer":513,"strasse":"Spoerkelhof ","kurzbezeichnung":"Schule","adresse":"50769 Köln, Spoerkelhof  1-7","baujahr":"1938","nummer":"1-7","plz":50769},"geometry":{"type":"Point","coordinates":[6.9482768,51.0285245]}},{"type":"Feature","properties":{"denkmalnummer":515,"strasse":"St.-Tönnis-Strasse","kurzbezeichnung":"Schule","adresse":"50769 Köln, St.-Tönnis-Strasse 37","baujahr":"1900","nummer":"37","plz":50769},"geometry":{"type":"Point","coordinates":[6.86492641384571,51.0639732]}},{"type":"Feature","properties":{"denkmalnummer":516,"strasse":"St.-Tönnis-Strasse","kurzbezeichnung":"Hofanlage","adresse":"50769 Köln, St.-Tönnis-Strasse 28","baujahr":"19","nummer":"28","plz":50769},"geometry":{"type":"Point","coordinates":[6.86494551184364,51.0649386]}},{"type":"Feature","properties":{"denkmalnummer":519,"strasse":"Weilerstrasse","kurzbezeichnung":"ehem. Schule","adresse":"50765 Köln, Weilerstrasse 8","baujahr":"1895","nummer":"8","plz":50765},"geometry":{"type":"Point","coordinates":[6.85856062851562,51.0135732]}},{"type":"Feature","properties":{"denkmalnummer":520,"strasse":"Weilerweg","kurzbezeichnung":"Hofanlage Hirschhof","adresse":"50765 Köln, Weilerweg 95","baujahr":"0","nummer":"95","plz":50765},"geometry":{"type":"Point","coordinates":[6.88163797082912,51.0231687]}},{"type":"Feature","properties":{"denkmalnummer":521,"strasse":"Wezelostrasse","kurzbezeichnung":"Baumreihe","adresse":"50765 Köln, Wezelostrasse o.Nr.","baujahr":"20","nummer":"o.Nr.","plz":50765},"geometry":{"type":"Point","coordinates":[6.8850853,51.0218007]}},{"type":"Feature","properties":{"denkmalnummer":523,"strasse":"Alfred-Schütte-Allee","kurzbezeichnung":"Allee / Grünanlage mit Sportflächen","adresse":"51105 Köln, Alfred-Schütte-Allee o.Nr.","baujahr":"1910","nummer":"o.Nr.","plz":51105},"geometry":{"type":"Point","coordinates":[6.9828229,50.9135288]}},{"type":"Feature","properties":{"denkmalnummer":524,"strasse":"Allerseelenstrasse","kurzbezeichnung":"Allee","adresse":"51105 Köln, Allerseelenstrasse o.Nr.","baujahr":"1920","nummer":"o.Nr.","plz":51105},"geometry":{"type":"Point","coordinates":[6.9854516,50.92184]}},{"type":"Feature","properties":{"denkmalnummer":525,"strasse":"Am Markt ","kurzbezeichnung":"KD-Joh.Nepomuk-Standbild, Kriegerdenkmal","adresse":"51143 Köln, Am Markt  o.Nr.","baujahr":"1775","nummer":"o.Nr.","plz":51143},"geometry":{"type":"Point","coordinates":[7.0431093,50.8694672]}},{"type":"Feature","properties":{"denkmalnummer":526,"strasse":"Am Marktplatz ","kurzbezeichnung":"KD-Wegekreuz","adresse":"51149 Köln, Am Marktplatz  o.Nr.","baujahr":"1869","nummer":"o.Nr.","plz":51149},"geometry":{"type":"Point","coordinates":[7.0288162,50.8981928]}},{"type":"Feature","properties":{"denkmalnummer":528,"strasse":"Bahnhofstrasse","kurzbezeichnung":"Baumreihe","adresse":"51143 Köln, Bahnhofstrasse o.Nr.","baujahr":"1900","nummer":"o.Nr.","plz":51143},"geometry":{"type":"Point","coordinates":[7.061534,50.8829404]}},